catch_terms,all_names,recode_column,aliases,organization_name,domains,website_url,school_type,in_school_system,school_system,country,address,city,us_state,us_zip,us_fips,longitude,latitude,ipeds_unit_id,ope_id,ein_id,duns_id,matched,as_of,manually_edited,dupe_domain,dupe_name
a t still university of health sciences,a t still university of health sciences,a t still university of health sciences,NA,A T Still University of Health Sciences,atsu.edu,www.atsu.edu/,Private not-for-profit,2,A T Still University of Health Sciences,United States,800 W Jefferson,Kirksville,MO,63501,29001,-92.589183,40.193648,177834,247700,430356250,006323315,0,2021-09-09,0,NA,NA
aaniiih nakoda college|aaniiih nakoda,aaniiih nakoda college|aaniiih nakoda,aaniiih nakoda college|aaniiih nakoda,NA,Aaniiih Nakoda College,ancollege.edu,www.ancollege.edu/,Public,2,Aaniiih Nakoda College,United States,269 Blackfeet Avenue Agency,Harlem,MT,59526,30005,-108.757816,48.484196,180203,2517500,810420980,144176575,1,2021-09-09,0,NA,NA
abc adult school,abc adult school,abc adult school,NA,ABC Adult School,abcadultschool.edu,https://www.abcadultschool.edu/,Public,2,ABC Adult School,United States,12254 Cuesta Drive,Cerritos,CA,90703-2801,6037,-118.070114,33.878179,491464,4227000,952380644,191602036,0,2021-09-09,0,NA,NA
abc beauty academy,abc beauty academy,abc beauty academy,NA,ABC Beauty Academy,abcbeautyacademy.webs.com,www.abcbeautyacademy.webs.com/,Private for-profit,2,ABC Beauty Academy,United States,2109 Buckingham Rd.,Richardson,TX,75081,48113,-96.685333,32.931698,459523,4168800,352540931,362100179,0,2021-09-09,0,NA,NA
abco technology,abco technology,abco technology,NA,ABCO Technology,abcotechnology.edu,www.abcotechnology.edu/,Private for-profit,2,ABCO Technology,United States,11222 S. La Cienega Blvd Ste 588,Inglewood,CA,90304-1551,6037,-118.369774,33.932121,485500,4242600,731676835,783766780,0,2021-09-09,0,NA,NA
abcott institute,abcott institute,abcott institute,NA,Abcott Institute,abcott.edu,www.abcott.edu/,Private for-profit,2,Abcott Institute,United States,"16250 Northland Drive, Suite 205",Southfield,MI,48075-5227,26125,-83.210617,42.446331,461892,4183300,030479069,121154566,0,2021-09-09,0,NA,NA
abilene christian university|abilene christian,abilene christian university|abilene christian,abilene christian university|abilene christian,NA,Abilene Christian University,acu.edu,www.acu.edu/,Private not-for-profit,2,Abilene Christian University,United States,NA,Abilene,TX,79699,48441,-99.709797,32.468943,222178,353700,750851900,073171951,1,2021-09-09,0,NA,NA
abraham baldwin agricultural college,abraham baldwin agricultural college|abac,abraham baldwin agricultural college,abac,Abraham Baldwin Agricultural College,abac.edu,https://www.abac.edu/,Public,1,University System of Georgia,United States,2802 Moore Hwy,Tifton,GA,31793-2601,13277,-83.528281,31.481889,138558,154100,586002072,781970942,0,2021-09-09,0,NA,NA
abraham lincoln university,abraham lincoln university,abraham lincoln university,NA,Abraham Lincoln University,alu.edu,https://www.alu.edu/,Private for-profit,2,Abraham Lincoln University,United States,"100 West Broadway, Suite 600",Glendale,CA,91210,6037,-118.256726,34.146294,488031,4243800,954591138,069285513,0,2021-09-09,0,NA,NA
academia serrant inc,academia serrant inc|academia serrant,academia serrant inc,academia serrant,Academia Serrant Inc,serrant.edu,www.serrant.edu/,Private for-profit,2,Academia Serrant Inc,United States,7033 Mendez Vigo,Ponce,PR,00717-1250,72113,-66.61529,18.009658,421896,3122500,660497406,966712077,0,2021-09-09,0,NA,NA
academy college,academy college,academy college,NA,Academy College,academycollege.edu,www.academycollege.edu/,Private for-profit,2,Academy College,United States,"1600 W. 82nd Street, Suite 100",Bloomington,MN,55431-1411,27053,-93.299809,44.855722,172866,2050300,410831212,094044195,0,2021-09-09,0,NA,NA
academy di capelli school of cosmetology,academy di capelli school of cosmetology|academy di capelli,academy di capelli school of cosmetology,academy di capelli,Academy Di Capelli-School of Cosmetology,academydicapelli.com,www.academydicapelli.com/,Private for-profit,2,Academy Di Capelli-School of Cosmetology,United States,950 Yale Ave Unit 20,Wallingford,CT,06492,9009,-72.806335,41.490402,449463,4104300,061646253,129905621,0,2021-09-09,0,NA,NA
academy di firenze,academy di firenze,academy di firenze,NA,Academy di Firenze,academydifirenze.com,www.academydifirenze.com/,Private for-profit,2,Academy di Firenze,United States,149 West Main Street,Jerome,ID,83338-2329,16053,-114.519826,42.723871,476957,4207200,202388398,198416302,0,2021-09-09,0,NA,NA
academy for careers and technology,academy for careers and technology,academy for careers and technology,NA,Academy for Careers and Technology,mcact.org,www.mcact.org/,Public,2,Academy for Careers and Technology,United States,2697 E Hwy 76,Mullins,SC,29574-6009,45067,-79.340157,34.186433,457989,4083300,570484883,NA,0,2021-09-09,0,NA,NA
academy for five element acupuncture,academy for five element acupuncture,academy for five element acupuncture,NA,Academy for Five Element Acupuncture,acupuncturist.edu,www.acupuncturist.edu/,Private not-for-profit,2,Academy for Five Element Acupuncture,United States,305 SE 2nd Ave,Gainesville,FL,32601,12001,-82.321994,29.650075,451079,4133500,650621012,158509195,0,2021-09-09,0,NA,NA
academy for jewish religion california,academy for jewish religion california,academy for jewish religion california,NA,Academy for Jewish Religion-California,ajrca.edu,www.ajrca.edu/,Private not-for-profit,2,Academy for Jewish Religion-California,United States,574 Hilgard Avenue,Los Angeles,CA,90024,6037,-118.438495,34.070281,457271,4155500,680493819,119560915,0,2021-09-09,0,NA,NA
academy for nursing and health occupations,academy for nursing and health occupations|anho,academy for nursing and health occupations,anho,Academy for Nursing and Health Occupations,anho.edu,www.anho.edu/,Private not-for-profit,2,Academy for Nursing and Health Occupations,United States,5154 Okeechobee Blvd Ste 201,West Palm Beach,FL,33417,12099,-80.121497,26.70653,412173,3346300,592757346,177616497,0,2021-09-09,0,NA,NA
academy for salon professionals,academy for salon professionals,academy for salon professionals,NA,Academy for Salon Professionals,academyla.com,www.academyla.com/,Private for-profit,2,Academy for Salon Professionals,United States,19520 Nordhoff St. Unit 9,Northridge,CA,91324,6037,-118.558215,34.23396,462062,4189800,510640063,005774637,0,2021-09-09,0,NA,NA
academy of art university,academy of art university,academy of art university,NA,Academy of Art University,academyart.edu,www.academyart.edu/,Private for-profit,2,Academy of Art University,United States,79 New Montgomery,San Francisco,CA,94105,6075,-122.400578,37.787943,108232,753100,941637804,826765604,0,2021-09-09,0,NA,NA
academy of career training,academy of career training,academy of career training,NA,Academy of Career Training,academyofcareertraining.com,academyofcareertraining.com/,Private for-profit,2,Academy of Career Training,United States,3501 W Vine St Ste 111,Kissimmee,FL,34741,12097,-81.439569,28.306092,451097,4126900,593328489,839578127,0,2021-09-09,0,NA,NA
academy of careers and technology,academy of careers and technology,academy of careers and technology,NA,Academy of Careers and Technology,wvact.net,www.wvact.net/,Public,1,Raleigh County Board of Education,United States,390 Stanaford Rd,Beckley,WV,25801,54081,-81.165435,37.795299,237729,1290500,556000390,100576842,0,2021-09-09,0,NA,NA
academy of chinese culture and health sciences,academy of chinese culture and health sciences|acchs,academy of chinese culture and health sciences,acchs,Academy of Chinese Culture and Health Sciences,acchs.edu,www.acchs.edu/,Private not-for-profit,2,Academy of Chinese Culture and Health Sciences,United States,"1600 Broadway, Ste. 200",Oakland,CA,94612,6001,-122.269839,37.805972,108269,3288300,942881684,801852732,0,2021-09-09,0,NA,NA
academy of cosmetology,academy of cosmetology,academy of cosmetology,NA,Academy of Cosmetology,academycosmetology.com,www.academycosmetology.com/,Private for-profit,2,Academy of Cosmetology Inc,United States,133 W Mendenhall,Bozeman,MT,59715-3544,30031,-111.039848,45.680544,179991,2621300,810537860,144172921,0,2021-09-09,0,NA,1
academy of cosmetology,academy of cosmetology,academy of cosmetology,NA,Academy of Cosmetology,floridacosmetologyschools.com,academyofcosmetology.edu/,Private for-profit,2,Academy of Cosmetology,United States,2088 N. Courtenay Parkway,Merritt Island,FL,32953,12009,-80.70372,28.394053,372462,2499000,581708995,138101118,0,2021-09-09,0,NA,1
academy of cosmetology and esthetics nyc,academy of cosmetology and esthetics nyc,academy of cosmetology and esthetics nyc,NA,Academy of Cosmetology and Esthetics NYC,theacademynyc.com,www.theacademynyc.com/,Private for-profit,1,Paul Mitchell The School,United States,187 New Dorp Ln,Staten Island,NY,10306,36085,-74.114517,40.573227,457855,4156000,202216250,831658427,0,2021-09-09,0,NA,NA
academy of esthetics and cosmetology,academy of esthetics and cosmetology,academy of esthetics and cosmetology,NA,Academy of Esthetics and Cosmetology,aecosmetology.com,www.aecosmetology.com/,Private for-profit,2,Academy of Esthetics and Cosmetology,United States,1242 San Fernando Rd,San Fernando,CA,91340-3212,6037,-118.444228,34.285043,454722,4132400,203169442,163229540,0,2021-09-09,0,NA,NA
academy of hair design beaumont,academy of hair design beaumont,academy of hair design beaumont,NA,Academy of Hair Design-Beaumont,lufkinhairdesign.com,https://www.lufkinhairdesign.com/,Private for-profit,1,Academy of Hair Design Inc.,United States,"3141 College, Suite A10",Beaumont,TX,77701-4650,48245,-94.122709,30.067103,434283,3277300,760483939,364020578,0,2021-09-09,0,1,NA
academy of hair design grenada,academy of hair design grenada,academy of hair design grenada,NA,Academy of Hair Design-Grenada,academyofhair.com,www.academyofhair.com/grenada-campus,Private for-profit,1,Academy of Hair Design Inc.,United States,1301 Sunset Dr #JK,Grenada,MS,38901,28043,-89.825313,33.775198,175722,2244305,640635739,078674985,0,2021-09-09,0,1,NA
academy of hair design jackson,academy of hair design jackson,academy of hair design jackson,NA,Academy of Hair Design-Jackson,academyofhair.com,www.academyofhair.com/,Private for-profit,1,Academy of Hair Design Inc.,United States,5420 I-55 Frontage Rd N,Jackson,MS,39211,28049,-90.147044,32.376376,374316,2244300,640635739,070774187,0,2021-09-09,0,1,NA
academy of hair design jasper,academy of hair design jasper,academy of hair design jasper,NA,Academy of Hair Design-Jasper,lufkinhairdesign.com,lufkinhairdesign.com/,Private for-profit,1,Academy of Hair Design Inc.,United States,348 Spring Hill St,Jasper,TX,75951,48241,-94.004879,30.908648,447449,3276301,760483939,785209974,0,2021-09-09,0,1,NA
academy of hair design las vegas,academy of hair design las vegas,academy of hair design las vegas,NA,Academy of Hair Design-Las Vegas,ahdvegas.com,www.ahdvegas.com/,Private for-profit,2,Academy of Hair Design-Las Vegas,United States,"5191 W. Charleston, #150",Las Vegas,NV,89146,32003,-115.210473,36.15846,181880,1323200,880137279,095143251,0,2021-09-09,0,NA,NA
academy of hair design lufkin,academy of hair design lufkin,academy of hair design lufkin,NA,Academy of Hair Design-Lufkin,lufkinhairdesign.com,lufkinhairdesign.com/,Private for-profit,1,Academy of Hair Design Inc.,United States,512 S Chestnut,Lufkin,TX,75904,48005,-94.718704,31.330724,434274,3276300,760483939,785209974,0,2021-09-09,0,1,NA
academy of hair design oklahoma city,academy of hair design oklahoma city,academy of hair design oklahoma city,NA,Academy of Hair Design-Oklahoma City,academyofhairdesignok.com,www.academyofhairdesignok.com/,Private for-profit,2,Academy of Hair Design-Oklahoma City,United States,2501 W Memorial Rd Suite 229,Oklahoma City,OK,73134-8055,40109,-97.557189,35.612955,455929,4144400,201942367,827168738,0,2021-09-09,0,NA,NA
academy of hair design pearl,academy of hair design pearl,academy of hair design pearl,NA,Academy of Hair Design-Pearl,academyofhair.com,www.academyofhair.com/,Private for-profit,1,Academy of Hair Design Inc.,United States,3167 Hwy 80 E,Pearl,MS,39208,28121,-90.115129,32.281983,382461,2235900,721165342,145378139,0,2021-09-09,0,1,NA
academy of hair design springfield,academy of hair design springfield,academy of hair design springfield,NA,Academy of Hair Design-Springfield,aohd.com,aohd.com/,Private for-profit,2,Academy of Hair Design-Springfield,United States,1834 S Glenstone,Springfield,MO,65804,29077,-93.261354,37.180584,451334,4037500,431763778,004503517,0,2021-09-09,0,NA,NA
academy of hair technology,academy of hair technology,academy of hair technology,NA,Academy of Hair Technology,hairchamps.com,www.hairchamps.com/,Private for-profit,2,Academy of Hair Technology,United States,3715 E North St Ste F,Greenville,SC,29615-2363,45045,-82.327426,34.874681,376446,2552400,471510230,615453479,0,2021-09-09,0,NA,NA
academy of interactive entertainment,academy of interactive entertainment|aie,academy of interactive entertainment,aie,Academy of Interactive Entertainment,aie.edu,https://www.aie.edu/,Private not-for-profit,2,Academy of Interactive Entertainment,United States,305 Harrison St Ste 405,Seattle,WA,98109-4623,53033,-122.351158,47.621224,482185,4223600,273792158,078448006,0,2021-09-09,0,NA,1
academy of interactive entertainment,academy of interactive entertainment|aie,academy of interactive entertainment,aie,Academy of Interactive Entertainment,theaie.us,www.lafayette.aie.edu/,Private not-for-profit,2,Academy of Interactive Entertainment,United States,537 Cajundome Boulevard #211,Lafayette,LA,70506-4293,22055,-92.043315,30.220037,487658,4248400,272990527,036677553,0,2021-09-09,0,NA,1
academy of massage and bodywork,academy of massage and bodywork,academy of massage and bodywork,NA,Academy of Massage and Bodywork,massage-academy.com,www.massage-academy.com/,Private for-profit,2,Academy of Massage and Bodywork,United States,1218 Pulaski Hwy Ste 324,Bear,DE,19701,10003,-75.666786,39.628779,451051,4130700,020619603,132852448,0,2021-09-09,0,NA,NA
academy of natural therapy inc,academy of natural therapy inc,academy of natural therapy inc,NA,Academy of Natural Therapy Inc,natural-therapy.com,www.natural-therapy.com/,Private for-profit,2,Academy of Natural Therapy Inc,United States,625 8th Ave,Greeley,CO,80631-9441,8123,-104.691075,40.426259,449454,4093300,841147220,052687774,0,2021-09-09,0,NA,NA
academy of professional cosmetology,academy of professional cosmetology,academy of professional cosmetology,NA,Academy of Professional Cosmetology,apcschools.com,www.apcschools.com/,Private for-profit,2,Academy of Professional Cosmetology,United States,2600 West Hudson Road Suite A,Rogers,AR,72756-2028,5007,-94.157411,36.35541,486619,4241800,273758938,054771718,0,2021-09-09,0,NA,NA
academy of salon and spa,academy of salon and spa|academy of salon & spa,academy of salon and spa,academy of salon & spa,Academy of Salon and Spa,academysalonspa.com,www.academysalonspa.com/,Private for-profit,2,Academy of Salon and Spa,United States,311 S 16th St,Fort Smith,AR,72901,5131,-94.41616,35.38097,107293,1074100,710416504,010322485,0,2021-09-09,0,NA,NA
academy of salon professionals,academy of salon professionals|academy of salon professionals llc,academy of salon professionals,academy of salon professionals llc,Academy of Salon Professionals,academyofsalonprofessionals.com,www.academyofsalonprofessionals.com/,Private for-profit,2,Academy of Salon Professionals,United States,2414 S. Limit Ave,Sedalia,MO,65301,29159,-93.251559,38.690729,480879,4212100,264574187,017973981,0,2021-09-09,0,NA,NA
acaydia school of aesthetics,acaydia school of aesthetics,acaydia school of aesthetics,NA,Acaydia School of Aesthetics,acaydia.com,www.acaydia.com/,Private for-profit,2,Acaydia School of Aesthetics,United States,"86 North University Avenue, Suite 130",Provo,UT,84601-0000,49049,-111.65823,40.234627,461342,4165500,870771149,796507254,0,2021-09-09,0,NA,NA
access careers,access careers,access careers,NA,Access Careers,accesscareers.net,www.accesscareers.net/,Private for-profit,2,Access Careers,United States,"474 Fulton Avenue, Suite 201",Hempstead,NY,11550-0000,36059,-73.61531,40.709502,483708,4213400,113311325,061789652,0,2021-09-09,0,1,NA
access careers islandia,access careers islandia,access careers islandia,NA,Access Careers-Islandia,accesscareers.net,www.accesscareers.net/,Private for-profit,2,Access Careers-Islandia,United States,"1930 Veterans Highway, Suite 10",Islandia,NY,11749-1599,36103,-73.175617,40.800874,494904,4213401,113311325,061789652,0,2021-09-09,0,1,NA
ace cosmetology and barber training center,ace cosmetology and barber training center|ace cosmetology/barber training center,ace cosmetology and barber training center,ace cosmetology/barber training center,Ace Cosmetology and Barber Training Center,acecosmetologybarbertraining.com,acetrainingcenters.com/,Private for-profit,2,Ace Cosmetology and Barber Training Center,United States,625 Wolcott Street  Suite 7,Waterbury,CT,06705,9009,-72.987416,41.593956,480736,4219200,264144199,078648825,0,2021-09-09,0,NA,NA
ace institute of technology,ace institute of technology,ace institute of technology,NA,Ace Institute of Technology,acecareer.edu,www.acecareer.edu/,Private for-profit,2,Ace Institute of Technology,United States,"312 West 36 Street, 2nd Floor",New York,NY,10018,36061,-73.993385,40.753658,449676,4043300,113458486,016858191,0,2021-09-09,0,NA,NA
acupuncture and integrative medicine college berkeley,acupuncture and integrative medicine college berkeley|aimc berkeley,acupuncture and integrative medicine college berkeley,aimc berkeley,Acupuncture and Integrative Medicine College-Berkeley,aimc.edu,https://www.aimc.edu/,Private not-for-profit,2,Acupuncture and Integrative Medicine College-Berkeley,United States,2550 Shattuck Avenue,Berkeley,CA,94704,6001,-122.267636,37.862754,384306,3327400,943111522,NA,0,2021-09-09,0,NA,NA
acupuncture and massage college,acupuncture and massage college,acupuncture and massage college,NA,Acupuncture and Massage College,amcollege.edu,www.amcollege.edu/,Private for-profit,2,Acupuncture and Massage College,United States,10506 N Kendall Drive,Miami,FL,33176,12086,-80.364141,25.686382,439969,3414500,471820894,NA,0,2021-09-09,0,NA,NA
adams state university,adams state university,adams state university,NA,Adams State University,adams.edu,www.adams.edu/,Public,2,Adams State University,United States,208 Edgemont Blvd,Alamosa,CO,81101,8003,-105.879642,37.473636,126182,134500,846000542,040705899,0,2021-09-09,0,NA,NA
adelphi university,adelphi university,adelphi university,NA,Adelphi University,adelphi.edu,www.adelphi.edu/,Private not-for-profit,2,Adelphi University,United States,South Ave,Garden City,NY,11530-0701,36059,-73.653321,40.721439,188429,266600,111630741,065972838,1,2021-09-09,0,NA,NA
adirondack community college,adirondack community college|suny adirondack,adirondack community college,suny adirondack,Adirondack Community College,www.sunyacc.edu,www.sunyacc.edu/,Public,1,State University of New York System,United States,640 Bay Rd,Queensbury,NY,12804,36113,-73.654813,43.351839,188438,286000,146013244,080470750,1,2021-09-09,0,NA,NA
adler graduate school,adler graduate school,adler graduate school,NA,Adler Graduate School,alfredadler.edu,www.alfredadler.edu/,Private not-for-profit,2,Adler Graduate School,United States,10225 Yellow Circle Dr.,Minnetonka,MN,55343,27053,-93.410236,44.893479,374024,3051900,410970173,010347649,0,2021-09-09,0,NA,NA
adler university,adler university,adler university,NA,Adler University,adler.edu,www.adler.edu/,Private not-for-profit,2,Adler University,United States,17 North Dearborn Street,Chicago,IL,60602,17031,-87.629156,41.882414,142832,2068100,362515281,068465889,0,2021-09-09,0,NA,NA
adrian college,adrian college,adrian college,NA,Adrian College,adrian.edu,www.adrian.edu/,Private not-for-profit,2,Adrian College,United States,110 S Madison St,Adrian,MI,49221-2575,26091,-84.061481,41.898591,168528,223400,381357980,051625622,0,2021-09-09,0,NA,NA
adrian's college of beauty turlock,adrian's college of beauty turlock,adrian's college of beauty turlock,NA,Adrian's College of Beauty Turlock,adrians.edu,www.adrians.edu/,Private for-profit,2,Adrian's College of Beauty Turlock,United States,1340 W Main St,Turlock,CA,95380,6099,-120.863784,37.491448,262369,2520400,770065510,362464547,0,2021-09-09,0,1,NA
adult and community education hudson,adult and community education hudson,adult and community education hudson,NA,Adult and Community Education-Hudson,ccsoh.us,https://www.ccsoh.us/site/Default.aspx?PageID=334,Public,2,Adult and Community Education-Hudson,United States,2323 Lexington Avenue,Columbus,OH,43211,39049,-82.980603,40.012851,203030,812900,316400416,946087681,0,2021-09-09,0,NA,NA
adult and continuing education bcts,adult and continuing education bcts|bergen county technical schools,adult and continuing education bcts,bergen county technical schools,Adult and Continuing Education-BCTS,bcts.bergen.org,bcts.bergen.org/index.php/adult-ed-main-page,Public,1,Bergen County Technical Schools,United States,190 Hackensack Avenue,Hackensack,NJ,07601-6637,34003,-74.035045,40.900877,183983,2312000,226002432,966635807,0,2021-09-09,0,NA,NA
advance beauty college,advance beauty college,advance beauty college,NA,Advance Beauty College,advancebeautycollege.com,www.advancebeautycollege.com/,Private for-profit,2,Advance Beauty College,United States,10121 Westminster Ave,Garden Grove,CA,92843,6059,-117.952637,33.759905,400187,3736300,330808951,096750109,0,2021-09-09,0,NA,NA
advance beauty techs academy,advance beauty techs academy|abt academy,advance beauty techs academy,abt academy,Advance Beauty Techs Academy,abt.edu,www.abt.edu/,Private for-profit,2,Advance Beauty Techs Academy,United States,641 N State St Ste 1,San Jacinto,CA,92583-6572,6065,-117.517655,33.884074,479974,4206800,263808798,791924538,0,2021-09-09,0,NA,NA
advance science international college,advance science international college|asicollege,advance science international college,asicollege,Advance Science International College,asicollege.edu,www.asicollege.edu/,Private for-profit,2,Advance Science International College,United States,5190 nw 167 st STE 200,Miami Lakes,FL,33014,12086,-80.284567,25.924708,444334,3757300,650817841,055618172,0,2021-09-09,0,NA,NA
advanced barber college and hair design,advanced barber college and hair design,advanced barber college and hair design,NA,Advanced Barber College and Hair Design,abcrgv.com,abcrgv.com/,Private for-profit,2,Advanced Barber College and Hair Design,United States,2818 S International,Weslaco,TX,78596,48215,-97.958247,26.131543,437608,3412300,742499648,789383742,0,2021-09-09,0,NA,NA
advanced beauty college,advanced beauty college|abc,advanced beauty college,abc,Advanced Beauty College,advancedbeautycollege.net,www.advancedbeautycollege.net/,Private for-profit,2,Advanced Beauty College,United States,3959 N. Beltline Rd.,Irving,TX,75038,48113,-96.9927,32.859493,458052,4155800,200563249,017358450,0,2021-09-09,0,NA,NA
advanced career institute,advanced career institute,advanced career institute,NA,Advanced Career Institute,advanced.edu,https://advanced.edu/,Private for-profit,2,Advanced Career Institute,United States,1728 North Kelsey Street,Visalia,CA,93291,6107,-119.38533,36.344669,480019,4208900,201675671,836243659,0,2021-09-09,0,NA,NA
advanced college,advanced college,advanced college,NA,Advanced College,advancedcollege.edu,www.advancedcollege.edu/,Private for-profit,2,Advanced College,United States,13180 Paramount Blvd.,South Gate,CA,90280,6037,-118.15794,33.915383,444343,3786300,954739195,123340585,0,2021-09-09,0,NA,NA
advanced college of cosmetology,advanced college of cosmetology,advanced college of cosmetology,NA,Advanced College of Cosmetology,accsuccess.com,www.accsuccess.com/,Private for-profit,2,Advanced College of Cosmetology,United States,25 West Main Street,Waupun,WI,53963-0000,55027,-88.736198,43.632848,461786,4179200,943478216,827575791,0,2021-09-09,0,NA,NA
advanced technology institute,advanced technology institute|ati,advanced technology institute,ati,Advanced Technology Institute,auto.edu,www.auto.edu/,Private for-profit,2,Advanced Technology Institute,United States,5700 Southern Blvd Ste 100,Virginia Beach,VA,23462,51810,-76.182268,36.841381,231411,3127500,541680601,874427776,0,2021-09-09,0,NA,NA
advanced training associates,advanced training associates|ata college,advanced training associates,ata college,Advanced Training Associates,advancedtraining.edu,www.advancedtraining.edu/,Private for-profit,2,ATA College,United States,"1810 Gillespie Way, Suite 104",El Cajon,CA,92020,6073,-116.981781,32.819023,444361,3532400,473833340,079846800,0,2021-09-09,0,NA,NA
advanced training institute,advanced training institute,advanced training institute,NA,Advanced Training Institute,atitraining.edu,www.atitraining.edu/,Private for-profit,2,Advanced Training Institute,United States,5150 S. Decatur Blvd.,Las Vegas,NV,89118-1519,32003,-115.206821,36.09589,461430,4171000,208451424,879869977,0,2021-09-09,0,NA,NA
advanced welding institute,advanced welding institute|awi,advanced welding institute,awi,Advanced Welding Institute,awi.edu,www.awi.edu/,Private for-profit,2,Advanced Welding Institute,United States,2 Green Tree Dr Suite 3,South Burlington,VT,05403,50007,-73.139437,44.45588,456001,4146900,043748835,144357576,0,2021-09-09,0,NA,NA
advantage career institute,advantage career institute,advantage career institute,NA,Advantage Career Institute,aci.edu,www.aci.edu/,Private for-profit,2,Advantage Career Institute,United States,2 Meridian Road,Eatontown,NJ,07724,34025,-74.049694,40.279075,490896,4229100,203476575,809856136,0,2021-09-09,0,NA,NA
advantage technical college,advantage technical college,advantage technical college,NA,Advantage Technical College,adtecpr.com,https://www.adtecpr.com/,Private for-profit,2,Advantage Technical College,United States,3 Ramos Velez St,Manati,PR,00674,72091,-66.493084,18.428049,423397,3104400,660439287,847068434,0,2021-09-09,0,1,1
advantage technical college,advantage technical college,advantage technical college,NA,Advantage Technical College,adtecpr.com,https://www.adtecpr.com/,Private for-profit,2,Advantage Technical College,United States,Ponce de Leon Avenue #818,San Juan,PR,00907-0000,72127,-66.081082,18.454692,493071,3104401,660439287,847068434,0,2021-09-09,0,1,1
adventhealth university,adventhealth university|florida hospital college,adventhealth university,florida hospital college,AdventHealth University,ahu.edu,www.ahu.edu/,Private not-for-profit,2,AdventHealth University,United States,671 Winyah Drive,Orlando,FL,32803,12095,-81.367687,28.576142,133872,3115500,593069793,835509993,0,2021-09-09,0,NA,NA
aesthetic science institute,aesthetic science institute,aesthetic science institute,NA,Aesthetic Science Institute,aestheticscienceinstitute.edu,www.aestheticscienceinstitute.edu/,Private for-profit,2,Aesthetic Science Institute,United States,922 Troy-Schenectady Road,Latham,NY,12110-1095,36001,-73.794947,42.76194,476878,4204300,030428167,133774666,0,2021-09-09,0,NA,NA
agnes scott college,agnes scott college,agnes scott college,NA,Agnes Scott College,agnesscott.edu,www.agnesscott.edu/,Private not-for-profit,2,Agnes Scott College,United States,141 E. College Ave.,Decatur,GA,30030-3770,13089,-84.295459,33.769268,138600,154200,580566116,075880872,1,2021-09-09,0,NA,NA
ai miami international university of art and design,ai miami international university of art and design,ai miami international university of art and design,NA,AI Miami International University of Art and Design,artinstitutes.edu,www.artinstitutes.edu/miami/,Private for-profit,1,Education Principle Foundation,United States,"1501 Biscayne Boulevard, Suite 100",Miami,FL,33132-1418,12086,-80.18839,25.790008,134811,887800,821491664,133098900|167543854,0,2021-09-09,0,1,NA
aiken school of cosmetology and barbering,aiken school of cosmetology and barbering,aiken school of cosmetology and barbering,NA,Aiken School of Cosmetology and Barbering,ascandb.com,www.ascandb.com/,Private for-profit,2,Aiken School of Cosmetology and Barbering,United States,225 Richland Ave East,Aiken,SC,29801,45003,-81.71728,33.559545,457998,4158100,261708017,785601779,0,2021-09-09,0,NA,NA
aiken technical college,aiken technical college,aiken technical college,NA,Aiken Technical College,atc.edu,https://www.atc.edu/,Public,1,South Carolina Technical College System,United States,2276 Jefferson Davis Highway,Graniteville,SC,29829,45003,-81.841666,33.533833,217615,1005600,570523399,940020381,1,2021-09-09,0,NA,NA
aims community college,aims community college,aims community college,NA,Aims Community College,aims.edu,www.aims.edu/,Public,2,Aims Community College,United States,5401 W. 20th St.,Greeley,CO,80634,8123,-104.763415,40.409559,126207,758200,840575852,022660062,1,2021-09-09,0,NA,NA
alabama a&m university|alabama a&m,alabama a&m university|alabama a&m|aamu,alabama a&m university|alabama a&m,aamu,Alabama A & M University,aamu.edu,www.aamu.edu/,Public,2,Alabama A & M University,United States,4900 Meridian Street,Normal,AL,35762,1089,-86.568502,34.783368,100654,100200,636001109,197216455,1,2021-09-09,0,NA,NA
alabama college of osteopathic medicine,alabama college of osteopathic medicine|acom,alabama college of osteopathic medicine,acom,Alabama College of Osteopathic Medicine,acom.edu,https://www.acom.edu/,Private not-for-profit,2,Alabama College of Osteopathic Medicine,United States,445 Health Sciences Boulevard,Dothan,AL,36303-2251,1069,-85.340805,31.206294,483975,4226700,273339185,078472188,0,2021-09-09,0,NA,NA
alabama school of nail technology & cosmetology,alabama school of nail technology & cosmetology|alabama school of nail technology,alabama school of nail technology & cosmetology,alabama school of nail technology,Alabama School of Nail Technology & Cosmetology,alabamaschoolofnailtechnology.com,www.alabamaschoolofnailtechnology.com/,Private for-profit,2,Alabama School of Nail Technology & Cosmetology,United States,202 Commerce Street,Jackson,AL,36545-2718,1025,-87.893386,31.50997,488916,4255500,631170370,036433506,0,2021-09-09,0,NA,NA
alabama state college of barber styling,alabama state college of barber styling|ascbs,alabama state college of barber styling,ascbs,Alabama State College of Barber Styling,ascbs.edu,www.ascbs.edu/,Private for-profit,2,Alabama State College of Barber Styling,United States,753 Main Street,Gardendale,AL,35071,1073,-86.810488,33.643546,371034,3032500,465711650,016007184,0,2021-09-09,0,NA,NA
alabama state university|alabama state,alabama state university|alabama state,alabama state university|alabama state,NA,Alabama State University,alasu.edu,www.alasu.edu/,Public,2,Alabama State University,United States,915 S Jackson Street,Montgomery,AL,36104-0271,1101,-86.295677,32.364317,100724,100500,636001101,040672685,1,2021-09-09,0,NA,NA
alamance community college,alamance community college|acc|technical institute of alamance|alamance college |,alamance community college,acc|technical institute of alamance|alamance college |,Alamance Community College,alamancecc.edu,www.alamancecc.edu/,Public,1,North Carolina Community College System,United States,1247 Jimmie Kerr Road,Graham,NC,27253-8000,37001,-79.357657,36.066683,199786,546300,566052379,071574495,1,2021-09-09,0,NA,NA
alamo city barber college,alamo city barber college|acbc llc,alamo city barber college,acbc llc,Alamo City Barber College,alamocitybarbercollege.com,www.alamocitybarbercollege.com/,Private for-profit,2,Alamo City Barber College,United States,8910 Bandera Road Suite 209,San Antonio,TX,78250-3227,48029,-98.639532,29.52717,482981,4231900,274314777,054122066,0,2021-09-09,0,NA,NA
alaska bible college,alaska bible college,alaska bible college,NA,Alaska Bible College,akbible.edu,www.akbible.edu/,Private not-for-profit,2,Alaska Bible College,United States,248 E Elmwood Ave,Palmer,AK,99645,2170,-149.111972,61.598553,102580,884300,943255546,199412300,0,2021-09-09,0,NA,NA
alaska career college,alaska career college,alaska career college,NA,Alaska Career College,alaskacareercollege.edu,www.alaskacareercollege.edu/,Private for-profit,2,Alaska Career College,United States,1415 E Tudor Road,Anchorage,AK,99507-1033,2020,-149.856954,61.181443,103501,2541000,920106326,144406543,0,2021-09-09,0,NA,NA
alaska christian college,alaska christian college,alaska christian college,NA,Alaska Christian College,alaskacc.edu,www.alaskacc.edu/,Private not-for-profit,2,Alaska Christian College,United States,35109 Royal Place,Soldotna,AK,99669,2122,-151.136005,60.490459,442523,4138600,920174205,119602279,0,2021-09-09,0,NA,NA
alaska pacific university|alaska pacific,alaska pacific university|alaska pacific,alaska pacific university|alaska pacific,NA,Alaska Pacific University,alaskapacific.edu,www.alaskapacific.edu/,Private not-for-profit,2,Alaska Pacific University,United States,4101 University Dr,Anchorage,AK,99508,2020,-149.804168,61.190968,102669,106100,920023588,076637636,1,2021-09-09,0,NA,NA
alaska vocational technical center,alaska vocational technical center|avtec,alaska vocational technical center,avtec,Alaska Vocational Technical Center,avtec.edu,www.avtec.edu/,Public,2,Alaska Vocational Technical Center,United States,PO Box 889,Seward,AK,99664-0889,2122,-149.444487,60.110626,102711,3160300,926001185,120327366,0,2021-09-09,0,NA,NA
albany boces adult practical nursing program,albany boces adult practical nursing program,albany boces adult practical nursing program,NA,Albany BOCES-Adult Practical Nursing Program,capitalregionboces.org,https://www.capitalregionboces.org/adult-education/classes-programs/,Public,1,New York State Education Department,United States,900  Watervliet Shaker Rd,Albany,NY,12205,36001,-73.835752,42.745685,418038,2170200,146009582,091903765,0,2021-09-09,0,NA,NA
albany college of pharmacy and health sciences,albany college of pharmacy and health sciences,albany college of pharmacy and health sciences,NA,Albany College of Pharmacy and Health Sciences,acphs.edu,www.acphs.edu/,Private not-for-profit,2,Albany College of Pharmacy and Health Sciences,United States,106 New Scotland Avenue,Albany,NY,12208-3492,36001,-73.779063,42.650371,188526,288500,141423161,797866969,0,2021-09-09,0,NA,NA
albany law school,albany law school,albany law school,NA,Albany Law School,albanylaw.edu,www.albanylaw.edu/,Private not-for-profit,2,Albany Law School,United States,80 New Scotland Avenue,Albany,NY,12208,36001,-73.777495,42.651818,188535,288600,141338309,826432585,0,2021-09-09,0,NA,NA
albany medical college,albany medical college,albany medical college,NA,Albany Medical College,amc.edu,www.amc.edu/,Private not-for-profit,1,Albany Medical Center,United States,47 New Scotland Ave,Albany,NY,12208-3479,36001,-73.777289,42.65382,188580,288700,141338310,190592162,0,2021-09-09,0,NA,NA
albany state university|albany state,albany state university|albany state,albany state university|albany state,NA,Albany State University,asurams.edu,https://www.asurams.edu/,Public,1,University System of Georgia,United States,504 College Drive,Albany,GA,31705,13095,-84.141825,31.56928,138716,154400,586001996,030052815,1,2021-09-09,0,NA,NA
albany technical college|albany tech,albany technical college|albany tech,albany technical college|albany tech,NA,Albany Technical College,albanytech.edu,www.albanytech.edu/,Public,1,Technical College System of Georgia,United States,1704 South Slappey Boulevard,Albany,GA,31701,13095,-84.174284,31.55434,138682,560100,581788487,193349420,1,2021-09-09,0,NA,NA
albert einstein college of medicine,albert einstein college of medicine,albert einstein college of medicine,NA,Albert Einstein College of Medicine,med.einstein.yu.edu|mail.einstein.yu.edu|einsteinmed.org,www.einsteinmed.org/,Private not-for-profit,2,Albert Einstein College of Medicine,United States,1300 Morris Park Avenue,Bronx,NY,10461-1900,36005,-73.846327,40.852847,385415,4279700,830621846,081266487,1,2021-09-09,0,NA,NA
albertus magnus college,albertus magnus college,albertus magnus college,NA,Albertus Magnus College,albertus.edu,https://www.albertus.edu/,Private not-for-profit,2,Albertus Magnus College,United States,700 Prospect St,New Haven,CT,06511-1189,9009,-72.923848,41.332519,128498,137400,060646520,054475140,0,2021-09-09,0,NA,NA
albion college,albion college,albion college,NA,Albion College,albion.edu,www.albion.edu/,Private not-for-profit,2,Albion College,United States,611 E Porter St,Albion,MI,49224,26025,-84.745639,42.245049,168546,223500,381359081,020884516,1,2021-09-09,0,NA,NA
albright college,albright college,albright college,NA,Albright College,albright.edu,www.albright.edu/home/,Private not-for-profit,2,Albright College,United States,1621 N. 13th St.,Reading,PA,19612-5234,42011,-75.909742,40.361351,210571,322900,231352615,072851116,0,2021-09-09,0,NA,NA
alcorn state university,alcorn state university,alcorn state university,NA,Alcorn State University,alcorn.edu,www.alcorn.edu/,Public,1,Mississippi Institutions of Higher Learning,United States,1000 ASU Dr Ste 359,Alcorn State,MS,39096-7500,28021,-91.142854,31.877216,175342,239600,646000013,075084897,0,2021-09-09,0,NA,NA
alderson broaddus university,alderson broaddus university|alderson broaddus college,alderson broaddus university,alderson broaddus college,Alderson Broaddus University,ab.edu,www.ab.edu/,Private not-for-profit,2,Alderson Broaddus University,United States,101 College Hill Drive,Philippi,WV,26416-2035,54001,-80.047728,39.158067,237118,380600,550357072,060688728,0,2021-09-09,0,NA,NA
alexander academy,alexander academy,alexander academy,NA,Alexander Academy,alexanderacademy.com,www.alexanderacademy.com/,Private for-profit,2,Alexander Academy,United States,55 Massachusetts Avenue,Lunenburg,MA,01462-0000,25027,-71.769406,42.587705,476735,4193100,810664142,007163472,0,2021-09-09,0,NA,NA
alexander paul institute of hair design,alexander paul institute of hair design|alexander paul institute,alexander paul institute of hair design,alexander paul institute,Alexander Paul Institute of Hair Design,alexanderpaul.edu,https://www.alexanderpaul.edu/,Private for-profit,2,Alexander Paul Institute of Hair Design,United States,1011 Charles Blvd Ste A,Greenville,NC,27858-3344,37147,-77.371696,35.604962,483425,4219100,274380455,078583378,0,2021-09-09,0,NA,NA
alexandria school of scientific therapeutics,alexandria school of scientific therapeutics|assti,alexandria school of scientific therapeutics,assti,Alexandria School of Scientific Therapeutics,assti.com,www.assti.com/,Private for-profit,2,Alexandria School of Scientific Therapeutics,United States,809 S Harrison St,Alexandria,IN,46001-0287,18095,-85.674016,40.255608,368036,3538300,351535889,945620110,0,2021-09-09,0,NA,NA
alexandria technical and community college,alexandria technical and community college|atcc,alexandria technical and community college,atcc,Alexandria Technical & Community College,alextech.edu,www.alextech.edu/,Public,1,Minnesota State Colleges and Universities,United States,1601 Jefferson Streeet,Alexandria,MN,56308,27041,-95.372369,45.873107,172918,554400,411687754,605742410,1,2021-09-09,0,NA,NA
alfred university,alfred university,alfred university,NA,Alfred University,alfred.edu,www.alfred.edu/,Private not-for-profit,2,Alfred University,United States,One Saxon Drive,Alfred,NY,14802-1205,36003,-77.788106,42.254476,188641,266800,160743900,002130896,1,2021-09-09,0,NA,NA
alhambra beauty college,alhambra beauty college,alhambra beauty college,NA,Alhambra Beauty College,alhambrabeauty.edu,alhambrabeauty.edu/,Private for-profit,2,Alhambra Beauty College,United States,200 W Main St,Alhambra,CA,91801,6037,-118.129041,34.093916,393524,2282300,954517507,123924227,0,2021-09-09,0,NA,NA
alhambra medical university,alhambra medical university|fen wu university of alternative medicine,alhambra medical university,fen wu university of alternative medicine,Alhambra Medical University,amu.edu,www.amu.edu/,Private for-profit,2,Alhambra Medical University,United States,2215 W. Mission Road,Alhambra,CA,91803,6037,-118.148684,34.080181,487995,4243100,470913490,793915732,0,2021-09-09,0,NA,NA
alice lloyd college,alice lloyd college,alice lloyd college,NA,Alice Lloyd College,alc.edu,www.alc.edu/,Private not-for-profit,1,Caney Creek Community Center Inc.,United States,100 Purpose Rd,Pippa Passes,KY,41844,21119,-82.875068,37.335087,156189,195100,610492351,072669112,0,2021-09-09,0,NA,NA
all beauty college,all beauty college,all beauty college,NA,All Beauty College,abcollege.edu,abcollege.edu/,Private for-profit,2,All Beauty College,United States,2350 Miracle Mile Rd Unit 316,Bullhead City,AZ,86442,4015,-114.5945,35.101946,459125,4174200,260817831,004607710,0,2021-09-09,0,1,1
all beauty college,all beauty college,all beauty college,NA,All Beauty College,abcollege.edu,abcollege.edu/,Private for-profit,2,All Beauty College,United States,2060 W. Acoma Boulevard,Lake Havasu City,AZ,86403-2974,4015,-114.338235,34.49606,486868,4174202,260817831,004607710,0,2021-09-09,0,1,1
all state career school,all state career school,all state career school,NA,All-State Career School,allstatecareer.edu,www.allstatecareer.edu/,Private for-profit,1,Education Affiliates Inc.,United States,50 West Powhattan Avenue,Essington,PA,19029,42045,-75.303038,39.866057,210599,2495500,232334960,105589373,0,2021-09-09,0,1,NA
all state career school-pittsburgh,all state career school-pittsburgh,all state career school-pittsburgh,NA,All-State Career School-Pittsburgh,allstatecareer.edu,www.allstatecareer.edu/,Private for-profit,1,Education Affiliates Inc.,United States,1200 Lebanon Road,West Mifflin,PA,15122,42003,-79.93713,40.358492,418658,3493302,232937924,842161817,0,2021-09-09,0,1,NA
all state career-baltimore,all state career-baltimore,all state career-baltimore,NA,All-State Career-Baltimore,allstatecareer.edu,https://www.allstatecareer.edu/,Private for-profit,1,Education Affiliates Inc.,United States,2200 Broening Hwy Ste 160,Baltimore,MD,21224,24510,-76.544942,39.264664,373784,3493300,232571696,107797029,0,2021-09-09,0,1,NA
allan hancock college,allan hancock college,allan hancock college,NA,Allan Hancock College,hancockcollege.edu,www.hancockcollege.edu/,Public,2,Allan Hancock College,United States,800 South College Drive,Santa Maria,CA,93454-6399,6083,-120.421144,34.943716,108807,111100,521692042,NA,1,2021-09-09,0,NA,NA
allegany college of maryland,allegany college of maryland,allegany college of maryland,NA,Allegany College of Maryland,allegany.edu,www.allegany.edu/,Public,2,Allegany College of Maryland,United States,12401 Willowbrook Rd SE,Cumberland,MD,21502-2596,24001,-78.730398,39.652152,161688,205700,520846757,010095339,1,2021-09-09,0,NA,NA
allegheny college,allegheny college,allegheny college,NA,Allegheny College,alleg.edu,https://allegheny.edu/,Private not-for-profit,2,Allegheny College,United States,520 N Main St,Meadville,PA,16335-3902,42039,-80.147168,41.64869,210669,323000,250965212,074973918,1,2021-09-09,0,NA,NA
allegheny wesleyan college,allegheny wesleyan college,allegheny wesleyan college,NA,Allegheny Wesleyan College,awc.edu,awc.edu/,Private not-for-profit,2,Allegheny Wesleyan College,United States,2161 Woodsdale Rd,Salem,OH,44460-9598,39029,-80.861232,40.86722,200873,3457300,341142457,038095469,0,2021-09-09,0,NA,NA
allen college,allen college,allen college,NA,Allen College,allencollege.edu,www.allencollege.edu/,Private not-for-profit,2,Allen College,United States,1990 Heath St,Waterloo,IA,50703-1999,19013,-92.340148,42.530084,152798,3069100,421351526,787679885,0,2021-09-09,0,NA,NA
allen county community college,allen county community college|allen community college,allen county community college,allen community college,Allen County Community College,allencc.edu,https://www.allencc.edu/,Public,2,Allen County Community College,United States,1801 N Cottonwood,Iola,KS,66749,20001,-95.396377,37.938038,154642,190100,480697480,030648901,1,2021-09-09,0,NA,NA
allen school brooklyn,allen school brooklyn|allen school of health sciences  brooklyn,allen school brooklyn,allen school of health sciences  brooklyn,Allen School-Brooklyn,allenschool.edu,www.allenschool.edu/,Private for-profit,1,Allen School,United States,188 Montague Street,Brooklyn,NY,11201,36047,-73.991546,40.693797000000004,188650,3358301,161678414,NA,0,2021-09-09,0,1,NA
allen school jamaica,allen school jamaica|allen school of health sciences  jamaica,allen school jamaica,allen school of health sciences  jamaica,Allen School-Jamaica,allenschool.edu,www.allenschool.edu/,Private for-profit,1,Allen School,United States,163-18 Jamaica Avenue,Jamaica,NY,11432,36081,-73.796295,40.704694,415987,3358300,161678414,NA,0,2021-09-09,0,1,NA
allen school phoenix,allen school phoenix|allen school of health sciences  phoenix,allen school phoenix,allen school of health sciences  phoenix,Allen School-Phoenix,allenschool.edu,www.allenschool.edu/,Private for-profit,1,Allen School,United States,"15650 North Black Canyon Highway, B210",Phoenix,AZ,85053-4064,4013,-112.11743,33.629635,469610,3358303,161678414,NA,0,2021-09-09,0,1,NA
allen university,allen university|allen university,allen university,allen university,Allen University,allenuniversity.edu,www.allenuniversity.edu/,Private not-for-profit,2,Allen University,United States,1530 Harden Street,Columbia,SC,29204,45079,-81.020045,34.010348,217624,341700,570341191,622692064,0,2021-09-09,0,NA,NA
allgood beauty institute,allgood beauty institute|abi,allgood beauty institute,abi,Allgood Beauty Institute,allgoodbeauty.com,allgoodbeauty.com/,Private for-profit,2,Allgood Beauty Institute,United States,9741 Preston Road Suite 106,Frisco,TX,75033-4112,48085,-96.804131,33.15731,490522,4267200,270700108,038525280,0,2021-09-09,0,NA,NA
alliance career center,alliance career center,alliance career center,NA,Alliance Career Center,accrtw.org,www.accrtw.org/,Public,2,Alliance Career Center,United States,500 Glamorgan St.,Alliance,OH,44601,39151,-81.111225,40.911271,369109,3015100,346000040,956678069,0,2021-09-09,0,NA,NA
alliance computing solutions,alliance computing solutions,alliance computing solutions,NA,Alliance Computing Solutions,acs.edu,www.acs.edu/,Private for-profit,2,Alliance Computing Solutions,United States,"3660 Main Street, 4th Floor",Flushing,NY,11354-6507,36081,-73.831481,40.76156,483850,4223300,113432302,834395753,0,2021-09-09,0,NA,NA
alliant international university,alliant international university,alliant international university,NA,Alliant International University-San Diego,alliant.edu,https://www.alliant.edu/,Private for-profit,1,"Alliant International University, Inc.",United States,10455 Pomerado Road,San Diego,CA,92131,6073,-117.094398,32.897056,110468,1111700,205683516,073354631,1,2021-09-09,0,NA,NA
allied health careers institute,allied health careers institute,allied health careers institute,NA,Allied Health Careers Institute,ahci.edu,www.ahci.edu/,Private for-profit,2,Allied Health Careers Institute,United States,1237 Commerce Park,Murfreesboro,TN,37130-5996,47149,-86.391495,35.827799,490151,4253100,272253298,034151461,0,2021-09-09,0,NA,NA
allstate hairstyling & barber college,allstate hairstyling & barber college|allstate barber college inc.,allstate hairstyling & barber college,allstate barber college inc.,Allstate Hairstyling & Barber College,allstatehairstyling.com,www.allstatehairstyling.com/,Private for-profit,2,Allstate Hairstyling & Barber College,United States,2546 Lorain Avenue,Cleveland,OH,44113-3413,39035,-81.704403,41.484002,461111,2324400,340878763,076759075,0,2021-09-09,0,NA,NA
alma college,alma college,alma college,NA,Alma College,alma.edu,alma.edu/,Private not-for-profit,2,Alma College,United States,614 W Superior,Alma,MI,48801-1599,26057,-84.672053,43.38004,168591,223600,381359083,072582505,1,2021-09-09,0,NA,NA
alpena community college,alpena community college,alpena community college,NA,Alpena Community College,alpenacc.edu,www.alpenacc.edu/,Public,2,Alpena Community College,United States,665 Johnson St,Alpena,MI,49707,26007,-83.445069,45.081647,168607,223700,382310748,106756059,1,2021-09-09,0,NA,NA
altierus career college bissonnet,altierus career college bissonnet,altierus career college bissonnet,NA,Altierus Career College-Bissonnet,altierus.edu,https://www.altierus.edu/,Private not-for-profit,1,ECMC Education Inc.,United States,9700 Bissonnet St-Ste 1400,Houston,TX,77036-8001,48201,-95.544702,29.677415,445461,149916,472237488,602665247,0,2021-09-09,0,1,NA
altierus career college norcross,altierus career college norcross,altierus career college norcross,NA,Altierus Career College-Norcross,altierus.edu,https://www.altierus.edu/,Private not-for-profit,1,ECMC Education Inc.,United States,1750 Beaver Ruin Rd-Ste 500,Norcross,GA,30093-2813,13135,-84.155475,33.934121,443748,149917,472237488,177706681,0,2021-09-09,0,1,NA
altierus career college tampa,altierus career college tampa,altierus career college tampa,NA,Altierus Career College-Tampa,altierus.edu,https://www.altierus.edu/,Private not-for-profit,1,ECMC Education Inc.,United States,3319 W Hillsborough Ave,Tampa,FL,33614-5801,12057,-82.497616,27.996582,137801,149900,472237488,092719897,0,2021-09-09,0,1,NA
altoona beauty school inc,altoona beauty school inc,altoona beauty school inc,NA,Altoona Beauty School Inc,altoonabeautyschool.com,www.altoonabeautyschool.com/,Private for-profit,2,Altoona Beauty School Inc,United States,1528 Valley View Blvd.,Altoona,PA,16602-6039,42013,-78.387852,40.501861,210748,2290400,251758011,189585367,0,2021-09-09,0,NA,NA
alvernia university,alvernia university,alvernia university,NA,Alvernia University,alvernia.edu,https://www.alvernia.edu/,Private not-for-profit,2,Alvernia University,United States,400 Saint Bernardine St,Reading,PA,19607-1799,42011,-75.936754,40.310028,210775,323300,231522643,100956312,0,2021-09-09,0,NA,NA
alverno college,alverno college,alverno college,NA,Alverno College,alverno.edu,https://www.alverno.edu/,Private not-for-profit,2,Alverno College,United States,3400 S 43rd  St,Milwaukee,WI,53234-3922,55079,-87.965174,42.982842,238193,383200,390806263,076143205,1,2021-09-09,0,NA,NA
alvin community college,alvin community college|alvin|acc|dolphins,alvin community college,alvin|acc|dolphins,Alvin Community College,alvincollege.edu,www.alvincollege.edu/,Public,2,Alvin Community College,United States,3110 Mustang Rd,Alvin,TX,77511-4898,48039,-95.240671,29.396244,222567,353900,741405330,077420917,1,2021-09-09,0,NA,NA
amarillo college,amarillo college,amarillo college,NA,Amarillo College,actx.edu,www.actx.edu/,Public,2,Amarillo College,United States,2011 S. Washington,Amarillo,TX,79109,48375,-101.846988,35.187839,222576,354000,756000031,073186108,1,2021-09-09,0,NA,NA
amberton university,amberton university,amberton university,NA,Amberton University,amberton.edu,www.amberton.edu/,Private not-for-profit,2,Amberton University,United States,1700 Eastgate Dr,Garland,TX,75041-5595,48113,-96.65302,32.859931,222628,2259400,751786007,184195683,0,2021-09-09,0,NA,NA
ambria college of nursing,ambria college of nursing,ambria college of nursing,NA,Ambria College of Nursing,ambria.edu,ambria.edu/,Private for-profit,2,Ambria College of Nursing,United States,5210 Trillium Blvd,Hoffman Estates,IL,60192,17031,-88.2109,42.075628,457527,4124700,611488184,829604797,0,2021-09-09,0,NA,NA
america evangelical university,america evangelical university,america evangelical university,NA,America Evangelical University,aeu.edu,www.aeu.edu/,Private not-for-profit,2,America Evangelical University,United States,1818 South Western Avenue Suite 409,Los Angeles,CA,90006-5860,6037,-118.308661,34.041239,490081,4227100,954860047,004982987,0,2021-09-09,0,NA,NA
american academy mcallister institute of funeral service,american academy mcallister institute of funeral service|aami,american academy mcallister institute of funeral service,aami,American Academy McAllister Institute of Funeral Service,funeraleducation.org,www.funeraleducation.org/,Private not-for-profit,2,American Academy McAllister Institute of Funeral Service,United States,"1501 Broadway, 11th Floor, Suite 1102",New York,NY,10036,36061,-73.986466,40.757105,188687,1081300,132590811,068208966,0,2021-09-09,0,NA,NA
american academy of acupuncture and oriental medicine,american academy of acupuncture and oriental medicine|american academy of traditional chinese medicine inc.,american academy of acupuncture and oriental medicine,american academy of traditional chinese medicine inc.,American Academy of Acupuncture and Oriental Medicine,aaaom.edu,www.aaaom.edu/,Private for-profit,2,American Academy of Acupuncture and Oriental Medicine,United States,1925 W County Rd B-2,Roseville,MN,55113,27123,-93.18106,45.015332,446002,3833300,411918683,102206161,0,2021-09-09,0,NA,NA
american academy of art,american academy of art,american academy of art,NA,American Academy of Art,aaart.edu,https://www.aaart.edu/,Private not-for-profit,2,American Academy of Art,United States,332 S Michigan Ave,Chicago,IL,60604-4302,17031,-87.624788,41.87742,142887,162800,463291995,079636513,0,2021-09-09,0,NA,NA
american academy of cosmetology,american academy of cosmetology,american academy of cosmetology,NA,American Academy of Cosmetology,aacschool.com,www.aacschool.com/,Private for-profit,2,American Academy of Cosmetology,United States,1330 Blanding Blvd Ste 125,Orange Park,FL,32065,12019,-81.798803,30.123757,457396,4151500,030601562,603687299,0,2021-09-09,0,NA,NA
american academy of dramatic arts new york|american academy of dramatic arts,american academy of dramatic arts new york|american academy of dramatic arts,american academy of dramatic arts new york|american academy of dramatic arts,NA,American Academy of Dramatic Arts-Los Angeles,aada.edu,www.aada.edu/,Private not-for-profit,1,American Academy of Dramatic Arts,United States,1336 North La Brea Avenue,Los Angeles,CA,90028,6037,-118.343701,34.095378,108852,746501,130429660,081108151,1,2021-09-09,0,1,NA
american academy of dramatic arts new york|american academy of dramatic arts,american academy of dramatic arts new york|american academy of dramatic arts,american academy of dramatic arts new york|american academy of dramatic arts,NA,American Academy of Dramatic Arts-New York,aada.edu,www.aada.edu/,Private not-for-profit,1,American Academy of Dramatic Arts,United States,120 Madison Ave,New York,NY,10016,36061,-73.984843,40.745545,188678,746500,130429660,071035125,1,2021-09-09,0,1,NA
american academy of health and beauty,american academy of health and beauty,american academy of health and beauty,NA,American Academy of Health and Beauty,myaahb.com,https://myaahb.com/,Private for-profit,2,American Academy of Health and Beauty,United States,981 Second Street,Manchester,NH,03102-5263,33011,-71.480701,42.967431,461290,4162200,020482949,966952764,0,2021-09-09,0,NA,NA
american advanced technicians institute,american advanced technicians institute|aati,american advanced technicians institute,aati,American Advanced Technicians Institute,aati.edu,www.aati.edu/,Private for-profit,2,American Advanced Technicians Institute,United States,6801 W 20th St,Hialeah,FL,33014,12086,-80.323025,25.884901,444370,3491400,650606684,022034388,0,2021-09-09,0,NA,NA
american baptist college,american baptist college,american baptist college,NA,American Baptist College,abcnash.edu,www.abcnash.edu/,Private not-for-profit,2,American Baptist College,United States,1800 Baptist World Ctr Dr,Nashville,TN,37207-9980,47037,-86.789912,36.202623,219505,1046000,620485724,075374066,0,2021-09-09,0,NA,NA
american baptist seminary of the west,american baptist seminary of the west|bst,american baptist seminary of the west,bst,American Baptist Seminary of the West,absw.edu,www.absw.edu/,Private not-for-profit,2,Berkeley School of Theology,United States,2606 Dwight Way,Berkeley,CA,94704-3029,6001,-122.256149,37.865252,108861,112000,941156250,NA,0,2021-09-09,0,NA,NA
american barber academy,american barber academy,american barber academy,NA,American Barber Academy,americanbarberacademy.com,americanbarberacademy.com/,Private for-profit,2,American Barber and Beauty Academy,United States,733 Lancaster Avenue,Reading,PA,19607-1602,42011,-75.939691,40.316547,490258,4257900,472576959,028194238,0,2021-09-09,0,NA,NA
american beauty academy,american beauty academy,american beauty academy,NA,American Beauty Academy,americanbeauty.edu,www.americanbeauty.edu/,Private for-profit,2,American Beauty Academy,United States,87 W 600 S,Payson,UT,84651,49049,-111.733488,40.034634,459541,4169900,205598588,003614607,0,2021-09-09,0,NA,NA
american beauty academy west valley campus,american beauty academy west valley campus,american beauty academy west valley campus,NA,American Beauty Academy-West Valley Campus,americanbeautyutah.com,americanbeautyutah.com/,Private for-profit,2,American Beauty Academy-West Valley Campus,United States,3695 S Redwood Rd,West Valley City,UT,84119,49035,-111.938189,40.692128,489247,4169901,205598588,003614607,0,2021-09-09,0,NA,NA
american beauty college,american beauty college,american beauty college,NA,American Beauty College,americanbeautycollege.com,https://www.americanbeautycollege.edu/,Private for-profit,2,American Beauty College,United States,652 S. Sunset Ave,West Covina,CA,91790,6037,-117.936959,34.069367,108977,1307400,203008427,165192279,0,2021-09-09,0,NA,NA
american beauty school,american beauty school,american beauty school,NA,American Beauty School,americanbeautyschool.edu,www.americanbeautyschool.edu/,Private for-profit,2,American Beauty School,United States,1380 Metropolitan Avenue,Bronx,NY,10462,36005,-73.860639,40.835331,189477,3903400,134135190,078615010,0,2021-09-09,0,NA,NA
american beauty schools,american beauty schools,american beauty schools,NA,American Beauty Schools,americanbeautyschools.com,www.americanbeautyschools.com/,Private for-profit,2,American Beauty Schools,United States,8100 Southwest 8th Street,Miami,FL,33144-0000,12086,-80.327707,25.761572,490391,4263500,454481018,080312746,0,2021-09-09,0,NA,NA
american business and technology university,american business and technology university,american business and technology university,NA,American Business and Technology University,abtu.edu,https://abtu.edu/,Private for-profit,2,American Business and Technology University,United States,1018 W St Maartens Dr,St Joseph,MO,64506,29021,-94.819797,39.779095,457688,4118700,431919898,361167047,0,2021-09-09,0,NA,NA
american career college anaheim,american career college anaheim,american career college anaheim,NA,American Career College-Anaheim,americancareercollege.edu,https://americancareercollege.edu/,Private for-profit,1,American Career College Inc.,United States,1200 N. Magnolia Ave.,Anaheim,CA,92801-0000,6059,-117.975599,33.849912,441052,2241801,953236475,089433650,0,2021-09-09,0,1,NA
american career college los angeles,american career college los angeles,american career college los angeles,NA,American Career College-Los Angeles,americancareercollege.edu,https://americancareercollege.edu/,Private for-profit,1,American Career College Inc.,United States,4021 Rosewood Avenue,Los Angeles,CA,90004,6037,-118.292481,34.079323,109040,2241800,953236475,089433650,0,2021-09-09,0,1,NA
american career college ontario,american career college ontario,american career college ontario,NA,American Career College-Ontario,americancareercollege.edu,https://americancareercollege.edu/,Private for-profit,1,American Career College Inc.,United States,3130 East Sedona Court,Ontario,CA,91764,6071,-117.583814,34.068204,447768,3971300,260105863,191473151,0,2021-09-09,0,1,NA
american college for medical careers,american college for medical careers,american college for medical careers,NA,American College for Medical Careers,acmc.edu,www.acmc.edu,Private for-profit,-1,American College for Medical Careers,United States,5959 Lake Ellenor Lake,Orlando,FL,32809,12095,-81.402271,28.470997,461005,466600,263216109,NA,0,2021-09-09,0,NA,NA
american college of acupuncture and oriental med,american college of acupuncture and oriental med,american college of acupuncture and oriental med,NA,American College of Acupuncture and Oriental Med,acaom.edu,www.acaom.edu/,Private for-profit,2,American College of Acupuncture and Oriental Med,United States,9100 Park  West Drive,Houston,TX,77063-4104,48201,-95.524765,29.735747,429085,3153300,760326543,874401896,0,2021-09-09,0,NA,NA
american college of barbering,american college of barbering,american college of barbering,NA,American College of Barbering,americancollegeofbarbering.com,www.americancollegeofbarbering.com/,Private for-profit,2,American College of Barbering,United States,11320 North Preston Highway,Louisville,KY,40229-2862,21111,-85.670147,38.084678,486169,4204800,-1,006467671,0,2021-09-09,0,NA,NA
american college of hair design inc,american college of hair design inc,american college of hair design inc,NA,American College of Hair Design Inc,americancollegeofhairdesign.com,www.americancollegeofhairdesign.com/,Private for-profit,2,American College of Hair Design Inc,United States,125 Winchester Drive,Sedalia,MO,65301,29159,-93.269026,38.711715,179229,2309100,431698637,050887702,0,2021-09-09,0,NA,NA
american college of hairstyling des moines,american college of hairstyling des moines|iowa school of men's hairstyling inc. dba american college of hairstyling   des moines,american college of hairstyling des moines,iowa school of men's hairstyling inc. dba american college of hairstyling   des moines,American College of Hairstyling-Des Moines,americancollegeofhair.com,www.americancollegeofhair.com/,Private for-profit,-1,American College of Hairstyling-Des Moines,United States,603 E Sixth St,Des Moines,IA,50309,19153,-93.610159,41.592324,153588,765800,421069751,075848846,0,2021-09-09,0,NA,NA
american college of healthcare and technology,american college of healthcare and technology,american college of healthcare and technology,NA,American College of Healthcare and Technology,ach.edu,www.ach.edu/,Private for-profit,2,American College of Healthcare and Technology,United States,"11801 Pierce St., Suite 100",Riverside,CA,92505,6065,-117.493507,33.901581,422835,3144400,900446860,830573080,0,2021-09-09,0,1,1
american college of healthcare and technology,american college of healthcare and technology,american college of healthcare and technology,NA,American College of Healthcare and Technology,ach.edu,www.ach.edu/,Private for-profit,2,American College of Healthcare and Technology,United States,6330 Pacific Blvd Ste 201,Huntington Park,CA,90255,6037,-118.224752,33.98271,483009,3144402,900446860,830573080,0,2021-09-09,0,1,1
american college of healthcare sciences,american college of healthcare sciences,american college of healthcare sciences,NA,American College of Healthcare Sciences,achs.edu,www.achs.edu/,Private for-profit,2,American College of Healthcare Sciences,United States,5005 S. Macadam Ave,Portland,OR,97239,41051,-122.675858,45.486902,443599,4194400,931123424,963979125,0,2021-09-09,0,NA,NA
american college of the building arts,american college of the building arts,american college of the building arts,NA,American College of the Building Arts,acba.edu,acba.edu/,Private not-for-profit,2,American College of the Building Arts,United States,649 Meeting Street,Charleston,SC,29403-4223,45019,-79.946888,32.805094,485698,4283000,571075250,141447909,0,2021-09-09,0,NA,NA
american conservatory theater,american conservatory theater,american conservatory theater,NA,American Conservatory Theater,act-sf.org,www.act-sf.org/,Private not-for-profit,2,American Conservatory Theater,United States,415 Geary Street,San Francisco,CA,94102,6075,-122.410265,37.786923,109086,2099200,946135772,NA,0,2021-09-09,0,NA,NA
american educational college,american educational college,american educational college,NA,American Educational College,amedcopr.com,www.amedcopr.com/,Private for-profit,1,American Educational College Inc.,United States,45 Santa Cruz Street,Bayamon,PR,00961,72021,-66.15099,18.397931,241146,2303800,660393101,105738850,0,2021-09-09,0,NA,NA
american film institute conservatory,american film institute conservatory|american film institute afi conservatory  afi,american film institute conservatory,american film institute afi conservatory  afi,American Film Institute Conservatory,afi.com,www.afi.com/,Private not-for-profit,2,American Film Institute Conservatory,United States,2021 N Western Ave,Los Angeles,CA,90027-1625,6037,-118.310018,34.10767,108870,2222000,526072925,074840398,0,2021-09-09,0,NA,NA
american fitness and nutrition academy,american fitness and nutrition academy|afna,american fitness and nutrition academy,afna,American Fitness and Nutrition Academy,afna.edu,afna.edu/,Private for-profit,2,American Fitness and Nutrition Academy,United States,350 South Lake Avenue,Pasadena,CA,91101-3530,6037,-118.131854,34.1397,493503,4265600,272031619,078346093,0,2021-09-09,0,NA,NA
american hair academy,american hair academy,american hair academy,NA,American Hair Academy,americanhairacademy.com,americanhairacademy.com/,Private for-profit,2,American Hair Academy,United States,304 South Iris,Mt. Pleasant,IA,52641,19087,-91.524949,40.962643,153463,2289000,474650748,043313634,0,2021-09-09,0,NA,NA
american indian oic inc,american indian oic inc|takoda institute of higher education,american indian oic inc,takoda institute of higher education,American Indian OIC Inc,aioic.org,www.aioic.org/,Private not-for-profit,1,American Indian OIC,United States,1845 E. Franklin Ave,Minneapolis,MN,55404-2221,27053,-93.246155,44.961993,172927,2514100,411365561,161011515,0,2021-09-09,0,NA,NA
american institute of alternative medicine,american institute of alternative medicine|aiam,american institute of alternative medicine,aiam,American Institute of Alternative Medicine,aiam.edu,www.aiam.edu/,Private for-profit,2,American Institute of Alternative Medicine,United States,6685 Doubletree Ave,Columbus,OH,43229,39049,-82.988733,40.102442,441636,3534400,311408847,961047305,0,2021-09-09,0,NA,1
american institute of alternative medicine,american institute of alternative medicine|aiam,american institute of alternative medicine,aiam,American Institute of Alternative Medicine,massageschoolnewjersey.com,massageschoolnewjersey.com/,Private for-profit,2,American Institute of Alternative Medicine,United States,"223 Rt. 18, Suite 205",East Brunswick,NJ,08816,34023,-74.392845,40.438155,487852,4234400,223640333,079231139,0,2021-09-09,0,NA,1
american institute of beauty,american institute of beauty,american institute of beauty,NA,American Institute of Beauty,aibschool.edu,www.aibschool.edu/,Private for-profit,2,American Institute of Beauty,United States,3665 East Bay Drive Suite 164,Largo,FL,33771,12103,-82.749094,27.915072,447883,4016500,810552363,148464257,0,2021-09-09,0,NA,NA
american institute of healthcare & technology,american institute of healthcare & technology|aiht education,american institute of healthcare & technology,aiht education,American Institute of Healthcare & Technology,aiht.edu,https://www.aiht.edu/,Private for-profit,2,American Institute of Healthcare & Technology,United States,480 Lordship Boulevard,Stratford,CT,06615-7149,9001,-73.150918,41.170738,493682,4279000,453087636,945776073,0,2021-09-09,0,NA,NA
american institute of interior design,american institute of interior design|aiid,american institute of interior design,aiid,American Institute of Interior Design,aiid.edu,https://www.aiid.edu/,Private for-profit,2,American Institute of Interior Design,United States,"13014 N. Saguaro Blvd., Suite 206",Fountain Hills,AZ,85268,4013,-111.715081,33.60486,404037,4148700,272180786,615437902,0,2021-09-09,0,NA,NA
american institute of massage therapy,american institute of massage therapy,american institute of massage therapy,NA,American Institute of Massage Therapy,aimtinc.com,www.aimtinc.com/,Private for-profit,1,Total Looks Corporation,United States,"1516 Brookhollow Drive, Unit C",Santa Ana,CA,92705-5401,6059,-117.848291,33.71488,447795,3962300,900044328,135545114,0,2021-09-09,0,NA,NA
american institute of medical sciences & education,american institute of medical sciences & education|aims education,american institute of medical sciences & education,aims education,American Institute of Medical Sciences & Education,aimseducation.edu,www.aimseducation.edu/,Private for-profit,2,American Institute of Medical Sciences & Education,United States,4500 New Brunswick Ave,Piscataway,NJ,08854,34023,-74.437251,40.56114,455202,4136400,201077437,166745807,0,2021-09-09,0,NA,NA
american institute of medical technology,american institute of medical technology,american institute of medical technology,NA,American Institute of Medical Technology,aimt.edu,www.ata.edu/,Private for-profit,2,ATA College,United States,10820 E 45th St Suite 100,Tulsa,OK,74146,40143,-95.856621,36.098554,449728,4060300,020672029,138115071,0,2021-09-09,0,NA,NA
american institute clifton,american institute clifton|american institute,american institute clifton,american institute,American Institute-Clifton,americaninstitute.com,www.americaninstitute.com/,Private for-profit,1,Fox Institute of Business Inc.,United States,346 LEXINGTON AVE,CLIFTON,NJ,07011,34031,-74.130158,40.873516,184092,2106601,061184242,077322717,0,2021-09-09,0,1,NA
american institute somerset,american institute somerset,american institute somerset,NA,American Institute-Somerset,americaninstitute.com,www.americaninstitute.com/,Private for-profit,1,Fox Institute of Business Inc.,United States,80 Cottontail Lane,Somerset,NJ,08873-1100,34035,-74.544122,40.55089,490869,2106606,061184242,077322717,0,2021-09-09,0,1,NA
american institute toms river,american institute toms river,american institute toms river,NA,American Institute-Toms River,americaninstitute.com,www.americaninstitute.com/,Private for-profit,1,Fox Institute of Business Inc.,United States,2363 Lakewood Rd,Toms River,NJ,08755,34029,-74.220894,40.044556,482963,2106605,061184242,077322717,0,2021-09-09,0,1,NA
american institute west hartford,american institute west hartford|american institute,american institute west hartford,american institute,American Institute-West Hartford,americaninstitute.com,americaninstitute.com/,Private for-profit,1,Fox Institute of Business Inc.,United States,99 South Street,West Hartford,CT,06110-1922,9003,-72.725762,41.727016,129482,2106600,061184242,077322717,0,2021-09-09,0,1,NA
american intercontinental university,american intercontinental university|aiu,american intercontinental university,aiu,American InterContinental University,aiuniv.edu,www.aiuniv.edu/,Private for-profit,1,Perdoceo Education Corporation,United States,2200 E Germann Rd,Chandler,AZ,85286,4013,-111.804036,33.278816,445027,2113600,364302828,135902307,0,2021-09-09,0,1,NA
american intercontinental university atlanta,american intercontinental university atlanta|aiu atlanta,american intercontinental university atlanta,aiu atlanta,American InterContinental University-Atlanta,aiuniv.edu,www.aiuniv.edu/online-campus/campus-locations/atlanta,Private for-profit,1,Perdoceo Education Corporation,United States,"6600 Peachtree Dunwoody Road, 500 Embassy Row",Atlanta,GA,30328,13121,-84.354907,33.938779,438586,2113613,581286467,135902307,0,2021-09-09,0,1,NA
american intercontinental university houston,american intercontinental university houston|aiu houston,american intercontinental university houston,aiu houston,American InterContinental University-Houston,aiuniv.edu,www.aiuniv.edu/online-campus/campus-locations/houston,Private for-profit,1,Perdoceo Education Corporation,United States,9999 Richmond Avenue,Houston,TX,77042,48201,-95.548302,29.728216,445133,2113610,581286467,135902307,0,2021-09-09,0,1,NA
american international college|american international,american international college|american international|aic,american international college|american international,aic,American International College,aic.edu,www.aic.edu/,Private not-for-profit,2,American International College,United States,1000 State Street,Springfield,MA,01109,25013,-72.558338,42.112346,164447,211400,042103701,066986522,1,2021-09-09,0,NA,NA
american jewish university,american jewish university|aju,american jewish university,aju,American Jewish University,aju.edu,www.aju.edu/,Private not-for-profit,2,American Jewish University,United States,15600 Mulholland Dr,Los Angeles,CA,90077-1519,6037,-118.471706,34.128153,116846,274100,951684064,075314971,0,2021-09-09,0,NA,NA
american massage & bodywork institute,american massage & bodywork institute,american massage & bodywork institute,NA,American Massage & Bodywork Institute,ambimassageschool.com,www.ambimassageschool.com/,Private for-profit,2,American Massage & Bodywork Institute,United States,"1593 Spring Hill Road, Suite 210",Vienna,VA,22182-2245,51059,-77.244736,38.926154,492643,4276300,473201423,080193020,0,2021-09-09,0,NA,NA
american medical academy,american medical academy,american medical academy,NA,American Medical Academy,ama.edu,www.ama.edu/,Private for-profit,2,American Medical Academy,United States,12215 SW 112 Street,Miami,FL,33186-4830,12086,-80.393361,25.66273,475714,4192100,205206726,791471480,0,2021-09-09,0,NA,NA
american medical sciences center,american medical sciences center,american medical sciences center,NA,American Medical Sciences Center,amsc.edu,www.amsc.edu/,Private for-profit,2,American Medical Sciences Center,United States,"225 West Broadway, Suite 410",Glendale,CA,91204-5108,6037,-118.256991,34.147117,461263,4159700,954566098,099577228,0,2021-09-09,0,NA,NA
american musical and dramatic academy,american musical and dramatic academy,american musical and dramatic academy,NA,American Musical and Dramatic Academy,amda.edu,www.amda.edu/,Private not-for-profit,2,American Musical and Dramatic Academy,United States,211 West 61st Street,New York,NY,10023,36061,-73.987549,40.772275,188854,757200,132501829,NA,0,2021-09-09,0,NA,NA
american national university,american national university,american national university,NA,American National University,an.edu,https://www.an.edu/locations/,Private for-profit,1,American National University,United States,1813 East Main Street,Salem,VA,24153,51775,-80.023602,37.299743,232797,372600,541000842,058205121,0,2021-09-09,0,1,NA
american national university lexington,american national university lexington,american national university lexington,NA,American National University-Lexington,an.edu,https://www.an.edu/locations/,Private for-profit,1,American National University,United States,50 National College Boulevard,Pikeville,KY,41501-1520,21195,-82.607154,37.539398,157021,1048900,610436312,074081779,0,2021-09-09,0,1,NA
american public university system,american public university system|american military university american public university,american public university system,american military university american public university,American Public University System,apus.edu,https://www.apus.edu/,Private for-profit,1,American Public Education Inc.,United States,111 W Congress St,Charles Town,WV,25414,54037,-77.860121,39.287826,449339,3819300,010724370,868743352,1,2021-09-09,0,NA,NA
american river college,american river college|american river|arc,american river college,american river|arc,American River College,arc.losrios.edu,https://www.arc.losrios.edu/,Public,1,California Community College System,United States,4700 College Oak Dr,Sacramento,CA,95841-4286,6067,-121.349672,38.65085,109208,123200,941576340,193085123,1,2021-09-09,0,NA,NA
american samoa community college,american samoa community college|ascc,american samoa community college,ascc,American Samoa Community College,amsamoa.edu,www.amsamoa.edu/,Public,2,American Samoa Community College,United States,P.O. Box 2609,Pago Pago,AS,96799-2609,60050,-170.742774,-14.322636,240736,1001000,660516639,854990793,0,2021-09-09,0,NA,NA
american school of nursing and medical careers,american school of nursing and medical careers,american school of nursing and medical careers,NA,American School of Nursing and Medical Careers,americannursinged.com,www.americannursinged.com,Private for-profit,-1,American School of Nursing and Medical Careers,United States,670 N. Commercial St. Suite 403,Manchester,NH,03103,33011,-71.468655,42.997765,460570,466607,232690262,NA,0,2021-09-09,0,NA,NA
american sentinel university,american sentinel university,american sentinel university,NA,American Sentinel University,americansentinel.edu,www.americansentinel.edu/,Private for-profit,2,American Sentinel University,United States,10065 E. Harvard Ave,Denver,CO,80231,8031,-104.870151,39.673548,460738,4127700,260141164,603980793,0,2021-09-09,0,NA,NA
american technical institute,american technical institute|amtec,american technical institute,amtec,American Technical Institute,amtec.edu,www.amtec.edu/,Private for-profit,2,American Technical Institute,United States,"Ave Castiglioni U-27, Bayamon Gardens",Bayamon,PR,00957-0000,72021,-66.184489,18.379307,461625,4176000,660625886,962688359,0,2021-09-09,0,NA,NA
american trade school,american trade school,american trade school,NA,American Trade School,americantradeschool.edu,www.americantradeschool.edu/,Private for-profit,2,American Trade School,United States,3925 Industrial Drive,Saint Ann,MO,63074-1807,29189,-90.380141,38.72876,461573,4174800,134256746,808817543,0,2021-09-09,0,NA,NA
american university,american university,american university,NA,American University,american.edu,www.american.edu/,Private not-for-profit,2,American University,United States,4400 Massachusetts Ave NW,Washington,DC,20016-8001,11001,-77.088875,38.936005,131159,143400,530196549,077795060,1,2021-09-09,0,NA,NA
american university of health sciences,american university of health sciences|auhs,american university of health sciences,auhs,American University of Health Sciences,auhs.edu,https://www.auhs.edu/,Private for-profit,2,American University of Health Sciences,United States,1600 East Hill St,Signal Hill,CA,90755-3612,6037,-118.171366,33.796849,433004,3225300,900753581,010443643,0,2021-09-09,0,NA,NA
american university of puerto rico,american university of puerto rico,american university of puerto rico,NA,American University of Puerto Rico,aupr.edu,aupr.edu/,Private not-for-profit,2,American University of Puerto Rico,United States,"Carr. #2, Km.14.4, Bo. Hato Tejas",Bayamon,PR,00960-2037,72021,-66.186631,18.407058,241100,1194100,660350945,090169699,0,2021-09-09,0,1,1
american university of puerto rico,american university of puerto rico,american university of puerto rico,NA,American University of Puerto Rico,aupr.edu,aupr.edu/,Private not-for-profit,2,American University of Puerto Rico,United States,Carretera Estatal #2 Km.48.1,Manati,PR,00674-1082,72091,-66.478655,18.434072,241128,1194101,660350945,090169699,0,2021-09-09,0,1,1
ameritech college draper,ameritech college draper|ameritech college of healthcare,ameritech college draper,ameritech college of healthcare,AmeriTech College-Draper,ameritech.edu,www.ameritech.edu/,Private for-profit,2,AmeriTech College-Draper,United States,12257 South Business Park Drive-Ste 100,Draper,UT,84020-6545,49035,-111.892792,40.527932,447263,2270800,870432873,126890045,0,2021-09-09,0,1,NA
ameritech college provo,ameritech college provo|ameritech college of healthcare,ameritech college provo,ameritech college of healthcare,AmeriTech College-Provo,ameritech.edu,https://www.ameritech.edu/,Private for-profit,-1,AmeriTech College-Provo,United States,N/A,Provo,UT,84604,49049,-111.669298,40.261578,229957,2270804,-1,NA,0,2021-09-09,0,1,NA
amg school of licensed practical nursing,amg school of licensed practical nursing,amg school of licensed practical nursing,NA,AMG School of Licensed Practical Nursing,amg.edu,amg.edu/,Private for-profit,2,AMG School of Licensed Practical Nursing,United States,147 Prince Street,Brooklyn,NY,11201-1728,36047,-73.982035,40.692794,486415,4234900,364573123,054776791,0,2021-09-09,0,NA,NA
amherst college,amherst college,amherst college,NA,Amherst College,amherst.edu,www.amherst.edu/,Private not-for-profit,2,Amherst College,United States,Boltwood Avenue,Amherst,MA,01002-5000,25015,-72.518493,42.372459,164465,211500,042103542,066985367,1,2021-09-09,0,NA,NA
amridge university,amridge university|southern christian university regions university,amridge university,southern christian university regions university,Amridge University,amridgeuniversity.edu,www.amridgeuniversity.edu/,Private not-for-profit,2,Amridge University,United States,1200 Taylor Rd,Montgomery,AL,36117-3553,1101,-86.17401,32.362609,100690,2503400,237034324,126307792,0,2021-09-09,0,NA,NA
anabaptist mennonite biblical seminary,anabaptist mennonite biblical seminary|ambs|mennonite biblical seminary|mennonite seminary,anabaptist mennonite biblical seminary,ambs|mennonite biblical seminary|mennonite seminary,Anabaptist Mennonite Biblical Seminary,ambs.edu,www.ambs.edu/,Private not-for-profit,2,Anabaptist Mennonite Biblical Seminary,United States,3003 Benham Ave,Elkhart,IN,46517-1999,18039,-85.972165,41.656013,151865,182300,351902148,NA,0,2021-09-09,0,NA,NA
ancilla college,ancilla college,ancilla college,NA,Ancilla College,ancilla.edu,https://www.ancilla.edu/,Private not-for-profit,2,Ancilla College,United States,9601 S. Union Road,Donaldson,IN,46513-0001,18099,-86.445263,41.337958,150048,178400,356071917,112999800,1,2021-09-09,0,NA,NA
anderson university,anderson university,anderson university,NA,Anderson University,anderson.edu,https://anderson.edu/,Private not-for-profit,2,Anderson University,United States,1100 E 5th St,Anderson,IN,46012-3495,18095,-85.664315,40.112768,150066,178500,350867954,075972653,0,2021-09-09,0,NA,1
anderson university,anderson university|au,anderson university,au,Anderson University,andersonuniversity.edu,www.andersonuniversity.edu/,Private not-for-profit,2,Anderson University,United States,316 Boulevard,Anderson,SC,29621-4035,45007,-82.640358,34.5152,217633,341800,570324906,082226366,0,2021-09-09,0,NA,1
andrew college,andrew college,andrew college,NA,Andrew College,andrewcollege.edu,www.andrewcollege.edu/,Private not-for-profit,2,Andrew College,United States,501College St,Cuthbert,GA,39840-5550,13243,-84.795021,31.772321,138761,154500,580568687,078126950,1,2021-09-09,0,NA,NA
andrews university,andrews university|andrews,andrews university,andrews,Andrews University,andrews.edu,www.andrews.edu/,Private not-for-profit,2,Andrews University,United States,"4150 Administration Drive, Room 136",Berrien Springs,MI,49104,26021,-86.355815,41.963859,168740,223800,381627600,108285610,1,2021-09-09,0,NA,NA
angeles college,angeles college,angeles college,NA,Angeles College,angelescollege.edu,https://www.angelescollege.edu/,Private for-profit,2,Angeles College,United States,3440 Wilshire Blvd Ste 310,Los Angeles,CA,90010,6037,-118.29903,34.061223,457299,4160400,870727021,831300541,0,2021-09-09,0,NA,NA
angeles institute,angeles institute,angeles institute,NA,Angeles Institute,angelesinstitute.edu,www.angelesinstitute.edu/,Private for-profit,2,Angeles Institute,United States,"17100 PIONEER BLVD, SUITE 170",ARTESIA,CA,90701-2713,6037,-118.080741,33.875772,457314,4164400,208385998,627602167,0,2021-09-09,0,NA,NA
angelina college,angelina college|ac,angelina college,ac,Angelina College,angelina.edu,www.angelina.edu/,Public,2,Angelina College,United States,3500 South First,Lufkin,TX,75902-1768,48005,-94.731625,31.287444,222822,666100,751244347,074166273|145360975|185582470|947721940|134116024|113485911|619289106,1,2021-09-09,0,NA,NA
angelo state university,angelo state university|angelo state,angelo state university,angelo state,Angelo State University,angelo.edu,www.angelo.edu/,Public,1,Texas Tech University System,United States,2601 W. Avenue N,San Angelo,TX,76909,48451,-100.465051,31.440914,222831,354100,756002403,073157737,1,2021-09-09,0,NA,NA
ann webb skin institute,ann webb skin institute,ann webb skin institute,NA,Ann Webb Skin Institute,awskininstitute.com,awskininstitute.com/,Private for-profit,2,Ann Webb Skin Institute,United States,11701 Jollyville Road,Austin,TX,78759-3936,48453,-97.751895,30.419687,490425,4265400,261328598,080407697,0,2021-09-09,0,NA,NA
anna maria college,anna maria college,anna maria college,NA,Anna Maria College,annamaria.edu,www.annamaria.edu/,Private not-for-profit,2,Anna Maria College,United States,50 Sunset Lane,Paxton,MA,01612-1198,25027,-71.91896,42.330542,164492,211700,042002060,052928983,0,2021-09-09,0,NA,NA
anne arundel community college,anne arundel community college|aacc,anne arundel community college,aacc,Anne Arundel Community College,aacc.edu,www.aacc.edu/,Public,2,Anne Arundel Community College,United States,101 College Pky,Arnold,MD,21012-1895,24003,-76.512223,39.049813,161767,205800,520905706,069398444,1,2021-09-09,0,NA,NA
annenberg school of nursing,annenberg school of nursing,annenberg school of nursing,NA,Annenberg School of Nursing,asn.edu,www.asn.edu/,Private not-for-profit,1,Los Angeles Jewish Home,United States,19300 Sherman Way,Reseda,CA,91335-5426,6037,-118.553851,34.200825,475705,4191300,208449705,793138590,0,2021-09-09,0,NA,NA
anoka technical college,anoka technical college,anoka technical college,NA,Anoka Technical College,anokatech.edu,www.anokatech.edu/,Public,1,Minnesota State Colleges and Universities,United States,1355 Highway 10 West,Anoka,MN,55303,27003,-93.416087,45.216709,172954,735000,411687554,135933414,1,2021-09-09,0,NA,NA
anoka ramsey community college,anoka ramsey community college|anoka ramsey community college coon rapids campus|anoka ramsey community college cambridge campus|arcc|ar|anoka ramsey|anoka ramsey|anoka ramsey community college,anoka ramsey community college,anoka ramsey community college coon rapids campus|anoka ramsey community college cambridge campus|arcc|ar|anoka ramsey|anoka ramsey|anoka ramsey community college,Anoka-Ramsey Community College,anokaramsey.edu,www.anokaramsey.edu/,Public,1,Minnesota State Colleges and Universities,United States,11200 Mississippi Blvd NW,Coon Rapids,MN,55433-3470,27003,-93.351697,45.172978,172963,233200,411687554,131620069,1,2021-09-09,0,NA,NA
another level barbering and cosmetology school,another level barbering and cosmetology school,another level barbering and cosmetology school,NA,Another Level Barbering and Cosmetology School,albcschool.com,www.albcschool.edu/,Private for-profit,2,Another Level Barbering and Cosmetology School,United States,102 North Sycamore Street,Petersburg,VA,23803-3245,51730,-77.403817,37.228645,491978,4275900,472569356,080941082,0,2021-09-09,0,NA,NA
anousheh school of hair,anousheh school of hair,anousheh school of hair,NA,Anousheh School of Hair,anoushehschoolofhair.com,www.anoushehschoolofhair.com/,Private for-profit,2,Anousheh School of Hair,United States,1152 Vestal Avenue,Binghamton,NY,13903-1559,36007,-75.917306,42.087554,491969,4275100,050575653,080841152,0,2021-09-09,0,NA,NA
anson college of cosmetology,anson college of cosmetology,anson college of cosmetology,NA,Anson College of Cosmetology,ansoncollegeofcosmetology.com,ansoncollegeofcosmetology.com/,Private for-profit,2,Anson College of Cosmetology,United States,1217 East Caswell Street,Wadesboro,NC,28170-2147,37007,-80.055083,34.963535,434292,3237300,561599482,800584021,0,2021-09-09,0,NA,NA
antelope valley college,antelope valley college,antelope valley college,NA,Antelope Valley College,avc.edu,www.avc.edu/,Public,2,Antelope Valley College,United States,3041 West  Ave K,Lancaster,CA,93536-5426,6037,-118.186166,34.676207,109350,111300,952228663,074144403,1,2021-09-09,0,NA,NA
antilles school of technical careers,antilles school of technical careers,antilles school of technical careers,NA,Antilles School of Technical Careers,antillespr.edu,https://antillespr.edu/,Private for-profit,2,Antilles School of Technical Careers,United States,Calle Cayey # 1911,San Juan,PR,00909,72127,-66.059206,18.438416,241182,2234900,660429911,105822183,0,2021-09-09,0,NA,NA
antioch college,antioch college,antioch college,NA,Antioch College,antiochcollege.edu,antiochcollege.edu/,Private not-for-profit,2,Antioch College,United States,1 Morgan Pl,Yellow Springs,OH,45387,39057,-83.888077,39.799806,483018,4244300,261672457,832675222,0,2021-09-09,0,NA,NA
antioch university los angeles|antioch university la,antioch university los angeles|antioch university la|aula|antioch|antiok|antioc|antoich,antioch university los angeles|antioch university la,aula|antioch|antiok|antioc|antoich,Antioch University-Los Angeles,antiochla.edu,www.antiochla.edu/,Private not-for-profit,1,Antioch University,United States,400 Corporate Pointe,Culver City,CA,90230-7615,6037,-118.384458,33.988533,245838,301002,310536640,835710013,1,2021-09-09,0,NA,NA
antioch university midwest,antioch university midwest|antioch university mcgregor,antioch university midwest,antioch university mcgregor,Antioch University-Midwest,midwest.antioch.edu,midwest.antioch.edu/,Private not-for-profit,1,Antioch University,United States,900 Dayton St,Yellow Springs,OH,45387,39057,-83.908684,39.80321,245892,301000,310536640,041064825,0,2021-09-09,0,NA,NA
antioch new england,antioch new england|antioch new england graduate school,antioch new england,antioch new england graduate school,Antioch University-New England,antiochne.edu,www.antiochne.edu/,Private not-for-profit,1,Antioch University,United States,40 Avon St,Keene,NH,03431,33005,-72.293798,42.932344,245865,301004,310536640,041969544,1,2021-09-09,0,NA,NA
antioch university santa barbara,antioch university santa barbara|ausb,antioch university santa barbara,ausb,Antioch University-Santa Barbara,antiochsb.edu,www.antiochsb.edu/,Private not-for-profit,1,Antioch University,United States,602 Anacapa Street,Santa Barbara,CA,93101,6083,-119.6958,34.419203,245847,301003,310536640,098375207,0,2021-09-09,0,NA,NA
antioch university seattle,antioch university seattle,antioch university seattle,NA,Antioch University-Seattle,antiochseattle.edu,www.antiochseattle.edu/,Private not-for-profit,1,Antioch University,United States,2326 6th Ave,Seattle,WA,98121-1814,53033,-122.346318,47.615916,245883,301005,310536640,081926917,0,2021-09-09,0,NA,NA
aoma graduate school of integrative medicine,aoma graduate school of integrative medicine|aoma,aoma graduate school of integrative medicine,aoma,AOMA Graduate School of Integrative Medicine,aoma.edu,https://aoma.edu/,Private for-profit,2,AOMA Graduate School of Integrative Medicine,United States,4701 Westgate Blvd,Austin,TX,78745,48453,-97.800643,30.228551,429094,3156400,742997270,009303251,0,2021-09-09,0,NA,NA
aparicio levy technical college,aparicio levy technical college,aparicio levy technical college,NA,Aparicio-Levy Technical College,aparicio-levy.edu,www.aparicio-levy.edu/,Public,1,Hillsborough Technical Education Centers,United States,10119 East Ellicott Street,Tampa,FL,33610,12057,-82.332285,27.990625,485342,4194200,596000600,793688347,0,2021-09-09,0,NA,NA
apex academy hair skin nails school of cosmetology,apex academy hair skin nails school of cosmetology,apex academy hair skin nails school of cosmetology,NA,Apex Academy Hair Skin Nails School of Cosmetology,apexacademy2013.com,https://www.apexacademy2013.com/,Private for-profit,2,Apex Academy Hair Skin Nails School of Cosmetology,United States,1788 West Fourth Street,Ontario,OH,44906-1793,39139,-82.577702,40.771672,490434,4266100,461533018,052058900,0,2021-09-09,0,NA,NA
apex technical school,apex technical school,apex technical school,NA,Apex Technical School,apextechnical.com,www.apexschool.com/,Private for-profit,2,Apex Technical School,United States,24-02 Queens Plaza South,Long Island City,NY,11101,36081,-73.941511,40.75043,188890,751800,131949995,075253856,0,2021-09-09,0,NA,NA
apollo career center,apollo career center|apollo jvs apollo career center apollo joint vocational school,apollo career center,apollo jvs apollo career center apollo joint vocational school,Apollo Career Center,apollocareercenter.com,https://www.apollocareercenter.com/adult-education/,Public,2,Apollo Career Center,United States,3325 Shawnee Rd,Lima,OH,45806-1497,39003,-84.149151,40.692999,201034,2562300,341126813,100064336,0,2021-09-09,0,NA,NA
appalachian beauty school,appalachian beauty school,appalachian beauty school,NA,Appalachian Beauty School,appalachianbeautyschool.com,appalachianbeautyschool.com/,Private for-profit,2,Appalachian Beauty School,United States,25429 US HWY 119N,Belfry,KY,41514,21195,-82.266793,37.624479,237127,2159100,824310576,117133412,0,2021-09-09,0,NA,NA
appalachian bible college,appalachian bible college,appalachian bible college,NA,Appalachian Bible College,abc.edu,https://abc.edu/,Private not-for-profit,2,Appalachian Bible College,United States,161 College Drive,Mount Hope,WV,25880-9557,54081,-81.198867,37.853335,237136,754400,550370901,072679426,0,2021-09-09,0,NA,NA
appalachian college of pharmacy,appalachian college of pharmacy,appalachian college of pharmacy,NA,Appalachian College of Pharmacy,acp.edu,www.acp.edu/,Private not-for-profit,2,Appalachian College of Pharmacy,United States,1060 Dragon Road,Oakwood,VA,24631,51027,-82.006195,37.211629,449922,4180600,260069167,148629772,0,2021-09-09,0,NA,NA
appalachian school of law,appalachian school of law,appalachian school of law,NA,Appalachian School of Law,asl.edu,www.asl.edu/,Private not-for-profit,2,Appalachian School of Law,United States,1169 Edgewater Drive,Grundy,VA,24614,51027,-82.095648,37.277669,432348,3559300,541743079,962278024,0,2021-09-09,0,NA,NA
appalachian state university|appalachian state,appalachian state university|appalachian state|appalachian state university,appalachian state university|appalachian state,appalachian state university,Appalachian State University,appstate.edu,www.appstate.edu/,Public,1,University of North Carolina,United States,287 Rivers St,Boone,NC,28608,37189,-81.680583,36.215536,197869,290600,561176030,781866264,1,2021-09-09,0,NA,NA
applied technology services,applied technology services,applied technology services,NA,Applied Technology Services,appliedtech-stl.com,www.appliedtech-stl.com/,Public,2,Applied Technology Services,United States,12721 West Watson Road,Sunset Hills,MO,63127,29189,-90.413236,38.542285,417716,3068600,436015057,077119055,0,2021-09-09,0,NA,NA
aquinas college,aquinas college|aq,aquinas college,aq,Aquinas College,aquinas.edu,www.aquinas.edu/,Private not-for-profit,2,Aquinas College,United States,1700 Fulton St. E,Grand Rapids,MI,49506-1801,26081,-85.628785,42.96019,168786,223900,381367080,058344961,1,2021-09-09,0,NA,NA
aquinas institute of theology,aquinas institute of theology|aquinas institute a.i. a.i.t.,aquinas institute of theology,aquinas institute a.i. a.i.t.,Aquinas Institute of Theology,ai.edu,www.ai.edu/,Private not-for-profit,2,Aquinas Institute of Theology,United States,23 South Spring Avenue,Saint Louis,MO,63108-3323,29510,-90.237795,38.634329,176600,163200,431233793,NA,0,2021-09-09,0,NA,NA
arapahoe community college,arapahoe community college,arapahoe community college,NA,Arapahoe Community College,arapahoe.edu,www.arapahoe.edu/,Public,1,Colorado Community College System,United States,5900 S. Santa Fe Dr.,Littleton,CO,80160-9002,8005,-105.018631,39.607505,126289,134600,840704120,796082451,1,2021-09-09,0,NA,NA
arcadia college,arcadia college|beaver college,arcadia college,beaver college,Arcadia University,arcadia.edu,https://www.arcadia.edu/,Private not-for-profit,2,Arcadia University,United States,450 S Easton Rd,Glenside,PA,19038-3295,42091,-75.163876,40.092606,211088,323500,231352620,077070035,1,2021-09-09,0,NA,NA
arclabs,arclabs|arclabs welding school,arclabs,arclabs welding school,Arclabs,arclabs.edu,https://www.arclabs.edu/,Private for-profit,2,Arclabs,United States,"2615 Highway 153, B-3",Piedmont,SC,29673-6729,45007,-82.461311,34.77072,487791,4222000,205572859,064419582,0,2021-09-09,0,NA,NA
arizona academy of beauty east,arizona academy of beauty east,arizona academy of beauty east,NA,Arizona Academy of Beauty-East,arizonaacademy.com,www.arizonaacademy.com/,Private for-profit,2,Arizona Academy of Beauty-East,United States,5631 E Speedway Blvd,Tucson,AZ,85712,4019,-110.872305,32.237253,103954,886400,860178896,077524585,0,2021-09-09,0,NA,NA
arizona christian university,arizona christian university,arizona christian university,NA,Arizona Christian University,arizonachristian.edu,arizonachristian.edu/,Private not-for-profit,2,Arizona Christian University,United States,1 W. Firestorm Way,Glendale,AZ,85306-3216,4013,-112.181776,33.622952,105899,711300,860186050,020129144,0,2021-09-09,0,NA,NA
arizona college dallas,arizona college dallas,arizona college dallas,NA,Arizona College-Dallas,arizonacollege.edu,https://www.arizonacollege.edu/,Private for-profit,2,Arizona College-Dallas,United States,8330 LBJ Freeway Suite 100,Dallas,TX,75243-1200,48113,-96.75999,32.923106,494162,3115003,431537880,964757124,0,2021-09-09,0,1,NA
arizona college glendale,arizona college glendale,arizona college glendale,NA,Arizona College-Glendale,arizonacollege.edu,www.arizonacollege.edu/,Private for-profit,2,Arizona College-Glendale,United States,"4425 W Olive Avenue, Suite 300",Glendale,AZ,85302-3851,4013,-112.154233,33.56636,421708,3115000,431537880,964757124,0,2021-09-09,0,1,NA
arizona college las vegas,arizona college las vegas,arizona college las vegas,NA,Arizona College-Las Vegas,arizonacollege.edu,https://www.arizonacollege.edu/,Private for-profit,2,Arizona College of Nursing-Las Vegas,United States,2320 South Rancho Drive,Las Vegas,NV,89102-4512,32003,-115.171331,36.1456,487375,3115002,431537880,964757124,0,2021-09-09,0,1,NA
arizona college mesa,arizona college mesa,arizona college mesa,NA,Arizona College-Mesa,arizonacollege.edu,https://www.arizonacollege.edu/,Private for-profit,2,Arizona College-Mesa,United States,163 N Dobson Rd,Mesa,AZ,85201,4013,-111.873428,33.418374,482990,3115001,431537880,964757124,0,2021-09-09,0,1,NA
arizona college tempe,arizona college tempe,arizona college tempe,NA,Arizona College-Tempe,arizonacollege.edu,https://www.arizonacollege.edu/,Private for-profit,2,Arizona College of Nursing-Tempe,United States,"1620 West Fountainhead Parkway, Suite 110",Tempe,AZ,85282-1840,4013,-111.965808,33.403079,494171,3115004,431537880,964757124,0,2021-09-09,0,1,NA
arizona culinary institute,arizona culinary institute,arizona culinary institute,NA,Arizona Culinary Institute,azculinary.edu,www.azculinary.edu/,Private for-profit,2,Arizona Culinary Institute,United States,10585 N 114th St Ste 401,Scottsdale,AZ,85259,4013,-111.831237,33.581935,450951,4120900,861024863,097397363,0,2021-09-09,0,NA,NA
arizona school of acupuncture and oriental medicine,arizona school of acupuncture and oriental medicine|asaom,arizona school of acupuncture and oriental medicine,asaom,Arizona School of Acupuncture and Oriental Medicine,asaom.edu,www.asaom.edu/,Private for-profit,2,Arizona School of Acupuncture and Oriental Medicine,United States,2856 E Fort Lowell Rd,Tucson,AZ,85716-1518,4019,-110.929118,32.264559,446039,3695500,860817261,023232429,0,2021-09-09,0,NA,NA
arizona school of integrative studies,arizona school of integrative studies|asis massage education,arizona school of integrative studies,asis massage education,Arizona School of Integrative Studies,asismassage.edu,asismassage.edu/,Private for-profit,2,Arizona School of Integrative Studies,United States,639 N 6th ave,Tucson,AZ,85705,4019,-110.969111,32.23013,484163,4233100,860882395,031401900,0,2021-09-09,0,NA,NA
arizona state university|arizona state|asu,arizona state university|arizona state|asu,arizona state university|arizona state|asu,NA,Arizona State University-Downtown Phoenix,asu.edu,www.asu.edu/,Public,-2,Arizona State University-Downtown Phoenix,United States,411 N Central Ave,Phoenix,AZ,85004,4013,-112.07347,33.452914,448886,108103,860196696,NA,1,2021-09-09,0,1,NA
